[
  {
    "name": "Wachstube",
    "street": "",
    "postcode": "01069",
    "place": "Dresden",
    "lat": 51.042529,
    "lng": 13.7522293,
    "source_priority": "atlas",
    "source_url": "https://www.minigolfsport.de/minigolfatlas.php?plz=0",
    "google_place_id": "ChIJ3zE9kVfPCUcR48_FQ9oDWlg",
    "google_rating": 4.5,
    "google_maps_url": "https://maps.google.com/?cid=6366405259216408547&g_mp=Cidnb29nbGUubWFwcy5wbGFjZXMudjEuUGxhY2VzLlNlYXJjaFRleHQQAhgEIAA"
  },
  {
    "name": "Emilienstraße 20",
    "street": "",
    "postcode": "01139",
    "place": "Dresden",
    "lat": 51.0930015,
    "lng": 13.6914355,
    "source_priority": "atlas",
    "source_url": "https://www.minigolfsport.de/minigolfatlas.php?plz=0",
    "google_place_id": "ChIJPTuBozPOCUcRcFaHP4LQtGQ",
    "google_rating": null,
    "google_maps_url": "https://maps.google.com/?cid=7256654157430871664&g_mp=Cidnb29nbGUubWFwcy5wbGFjZXMudjEuUGxhY2VzLlNlYXJjaFRleHQQAhgEIAA"
  },
  {
    "name": "Moselbruchweg 11",
    "street": "",
    "postcode": "01609",
    "place": "Röderaue-Frauenhain",
    "lat": 51.3901798,
    "lng": 13.4871559,
    "source_priority": "atlas",
    "source_url": "https://www.minigolfsport.de/minigolfatlas.php?plz=0",
    "google_place_id": "ChIJdbL4w2qGp0cRdpjuFUD_5yo",
    "google_rating": null,
    "google_maps_url": "https://maps.google.com/?cid=3091720319924082806&g_mp=Cidnb29nbGUubWFwcy5wbGFjZXMudjEuUGxhY2VzLlNlYXJjaFRleHQQAhgEIAA"
  },
  {
    "name": "Freizeithof Nieschütz",
    "street": "",
    "postcode": "01665",
    "place": "Nieschütz",
    "lat": 51.2213751,
    "lng": 13.4178334,
    "source_priority": "atlas",
    "source_url": "https://www.minigolfsport.de/minigolfatlas.php?plz=0",
    "google_place_id": "ChIJ25x5DhF_p0cR9L62_5E9Tzg",
    "google_rating": 4.3,
    "google_maps_url": "https://maps.google.com/?cid=4057529486553825012&g_mp=Cidnb29nbGUubWFwcy5wbGFjZXMudjEuUGxhY2VzLlNlYXJjaFRleHQQAhgEIAA"
  },
  {
    "name": "Gießener Straße",
    "street": "",
    "postcode": "01734",
    "place": "Rabenau-Londorf",
    "lat": 50.6722209,
    "lng": 8.8695916,
    "source_priority": "atlas",
    "source_url": "https://www.minigolfsport.de/minigolfatlas.php?plz=0",
    "google_place_id": "ChIJLSHz6kzzvEcR_l-RjmGK_kw",
    "google_rating": null,
    "google_maps_url": "https://maps.google.com/?cid=5548023942575382526&g_mp=Cidnb29nbGUubWFwcy5wbGFjZXMudjEuUGxhY2VzLlNlYXJjaFRleHQQAhgEIAA"
  },
  {
    "name": "Talsperre Malter",
    "street": "",
    "postcode": "01744",
    "place": "Dippoldiswalde-Paulsdorf",
    "lat": 50.9175638,
    "lng": 13.6558376,
    "source_priority": "atlas",
    "source_url": "https://www.minigolfsport.de/minigolfatlas.php?plz=0",
    "google_place_id": "ChIJg4drEqvDCUcRGJ2sjy3jpRU",
    "google_rating": 4.5,
    "google_maps_url": "https://maps.google.com/?cid=1559902630777232664&g_mp=Cidnb29nbGUubWFwcy5wbGFjZXMudjEuUGxhY2VzLlNlYXJjaFRleHQQAhgEIAA"
  },
  {
    "name": "Ahorn Waldhotel Altenberg",
    "street": "",
    "postcode": "01773",
    "place": "Altenberg",
    "lat": 50.7753636,
    "lng": 13.6895217,
    "source_priority": "atlas",
    "source_url": "https://www.minigolfsport.de/minigolfatlas.php?plz=0",
    "google_place_id": "ChIJi0hRk2HsCUcRQATtKrYcdDo",
    "google_rating": 4.1,
    "google_maps_url": "https://maps.google.com/?cid=4212023120228058176&g_mp=Cidnb29nbGUubWFwcy5wbGFjZXMudjEuUGxhY2VzLlNlYXJjaFRleHQQAhgEIAA"
  },
  {
    "name": "Hotel \"Neue Schänke\"",
    "street": "",
    "postcode": "01824",
    "place": "Königstein",
    "lat": 50.9221197,
    "lng": 14.0511749,
    "source_priority": "atlas",
    "source_url": "https://www.minigolfsport.de/minigolfatlas.php?plz=0",
    "google_place_id": "ChIJFwm7BFe7CUcRKyaD9UOkq5U",
    "google_rating": 4.7,
    "google_maps_url": "https://maps.google.com/?cid=10784894344457561643&g_mp=Cidnb29nbGUubWFwcy5wbGFjZXMudjEuUGxhY2VzLlNlYXJjaFRleHQQAhgEIAA"
  },
  {
    "name": "Forellenschänke",
    "street": "",
    "postcode": "01855",
    "place": "Sebnitz",
    "lat": 50.9722458,
    "lng": 14.294296,
    "source_priority": "atlas",
    "source_url": "https://www.minigolfsport.de/minigolfatlas.php?plz=0",
    "google_place_id": "ChIJZT6t9nWoCUcRiK98L6-wDYc",
    "google_rating": 5,
    "google_maps_url": "https://maps.google.com/?cid=9731628636279975816&g_mp=Cidnb29nbGUubWFwcy5wbGFjZXMudjEuUGxhY2VzLlNlYXJjaFRleHQQAhgEIAA"
  },
  {
    "name": "Bahnhofstraße 1",
    "street": "",
    "postcode": "01877",
    "place": "Demitz-Thumitz",
    "lat": 51.1413762,
    "lng": 14.2451993,
    "source_priority": "atlas",
    "source_url": "https://www.minigolfsport.de/minigolfatlas.php?plz=0",
    "google_place_id": "ChIJ4WsH6tCsCUcRsxhdZImvQk0",
    "google_rating": null,
    "google_maps_url": "https://maps.google.com/?cid=5567205094012557491&g_mp=Cidnb29nbGUubWFwcy5wbGFjZXMudjEuUGxhY2VzLlNlYXJjaFRleHQQAhgEIAA"
  },
  {
    "name": "Nordstraße",
    "street": "",
    "postcode": "01917",
    "place": "Kamenz",
    "lat": 51.3032044,
    "lng": 14.0948602,
    "source_priority": "atlas",
    "source_url": "https://www.minigolfsport.de/minigolfatlas.php?plz=0",
    "google_place_id": "ChIJy1a5uhlJCEcR5RHhfmwrCLk",
    "google_rating": null,
    "google_maps_url": "https://maps.google.com/?cid=13332954441815495141&g_mp=Cidnb29nbGUubWFwcy5wbGFjZXMudjEuUGxhY2VzLlNlYXJjaFRleHQQAhgEIAA"
  },
  {
    "name": "Straße zur Südsee",
    "street": "",
    "postcode": "01968",
    "place": "Senftenberg-Großkoschen",
    "lat": 51.491561,
    "lng": 14.0450155,
    "source_priority": "atlas",
    "source_url": "https://www.minigolfsport.de/minigolfatlas.php?plz=0",
    "google_place_id": "ChIJv5FW4Ug-CEcRF8PNv3SfhSg",
    "google_rating": null,
    "google_maps_url": "https://maps.google.com/?cid=2919915257202590487&g_mp=Cidnb29nbGUubWFwcy5wbGFjZXMudjEuUGxhY2VzLlNlYXJjaFRleHQQAhgEIAA"
  },
  {
    "name": "Golfcafé",
    "street": "",
    "postcode": "01979",
    "place": "Lauchhammer-Grünewalde",
    "lat": 51.5070684,
    "lng": 13.6687883,
    "source_priority": "atlas",
    "source_url": "https://www.minigolfsport.de/minigolfatlas.php?plz=0",
    "google_place_id": "",
    "google_rating": null,
    "google_maps_url": ""
  },
  {
    "name": "Bahnengolfanlage",
    "street": "",
    "postcode": "01987",
    "place": "Schwarzheide",
    "lat": 51.4690005,
    "lng": 13.8837391,
    "source_priority": "atlas",
    "source_url": "https://www.minigolfsport.de/minigolfatlas.php?plz=0",
    "google_place_id": "ChIJLafNub48CEcRy0PhtvZtPqI",
    "google_rating": 3.9,
    "google_maps_url": "https://maps.google.com/?cid=11690902589097984971&g_mp=Cidnb29nbGUubWFwcy5wbGFjZXMudjEuUGxhY2VzLlNlYXJjaFRleHQQAhgEIAA"
  },
  {
    "name": "Minigolfpark am Stausee Bautzen",
    "street": "",
    "postcode": "02625",
    "place": "Bautzen",
    "lat": 51.2069942,
    "lng": 14.466512,
    "source_priority": "atlas",
    "source_url": "https://www.minigolfsport.de/minigolfatlas.php?plz=0",
    "google_place_id": "ChIJv5iuOVL_CEcRv235u4BT9rk",
    "google_rating": 3.8,
    "google_maps_url": "https://maps.google.com/?cid=13399989553662094783&g_mp=Cidnb29nbGUubWFwcy5wbGFjZXMudjEuUGxhY2VzLlNlYXJjaFRleHQQAhgEIAA"
  },
  {
    "name": "Lärchenbergweg 2",
    "street": "",
    "postcode": "02681",
    "place": "Schirgiswalde",
    "lat": 51.0795667,
    "lng": 14.4244964,
    "source_priority": "atlas",
    "source_url": "https://www.minigolfsport.de/minigolfatlas.php?plz=0",
    "google_place_id": "ChIJJ5fBNvEACUcRw2vVrrd81go",
    "google_rating": null,
    "google_maps_url": "https://maps.google.com/?cid=780948713749441475&g_mp=Cidnb29nbGUubWFwcy5wbGFjZXMudjEuUGxhY2VzLlNlYXJjaFRleHQQAhgEIAA"
  },
  {
    "name": "Schrammstraße 63",
    "street": "",
    "postcode": "02763",
    "place": "Zittau",
    "lat": 50.8879678,
    "lng": 14.808369,
    "source_priority": "atlas",
    "source_url": "https://www.minigolfsport.de/minigolfatlas.php?plz=0",
    "google_place_id": "ChIJW5mcfD09CUcR8Yqpi5tYk8Q",
    "google_rating": null,
    "google_maps_url": "https://maps.google.com/?cid=14164762678096661233&g_mp=Cidnb29nbGUubWFwcy5wbGFjZXMudjEuUGxhY2VzLlNlYXJjaFRleHQQAhgEIAA"
  },
  {
    "name": "Jonsdorfer Straße",
    "street": "",
    "postcode": "02779",
    "place": "Großschönau",
    "lat": 50.8789136,
    "lng": 14.6741197,
    "source_priority": "atlas",
    "source_url": "https://www.minigolfsport.de/minigolfatlas.php?plz=0",
    "google_place_id": "Ei1Kb25zZG9yZmVyIFN0ci4sIDAyNzc5IEdyb8Ofc2Now7ZuYXUsIEdlcm1hbnkiLiosChQKEgnZuvTW3xYJRxElfxeHCtAuLhIUChIJ47ODij8XCUcR0IAzlc6xIRw",
    "google_rating": null,
    "google_maps_url": "https://maps.google.com/?q=Jonsdorfer+Str.,+02779+Gro%C3%9Fsch%C3%B6nau,+Deutschland&ftid=0x470916dfd6f4bad9:0x2e2ed00a87177f25&g_mp=Cidnb29nbGUubWFwcy5wbGFjZXMudjEuUGxhY2VzLlNlYXJjaFRleHQQAhgEIAA"
  },
  {
    "name": "Am Kulturhaus 6",
    "street": "",
    "postcode": "02829",
    "place": "Neißeaue",
    "lat": 51.2665796,
    "lng": 14.9551499,
    "source_priority": "atlas",
    "source_url": "https://www.minigolfsport.de/minigolfatlas.php?plz=0",
    "google_place_id": "ChIJubY30THoCEcRKZKiZz1r45I",
    "google_rating": null,
    "google_maps_url": "https://maps.google.com/?cid=10584421460726682153&g_mp=Cidnb29nbGUubWFwcy5wbGFjZXMudjEuUGxhY2VzLlNlYXJjaFRleHQQAhgEIAA"
  },
  {
    "name": "Seeweg 2 C",
    "street": "",
    "postcode": "02953",
    "place": "Gablenz",
    "lat": 51.534216,
    "lng": 14.6679644,
    "source_priority": "atlas",
    "source_url": "https://www.minigolfsport.de/minigolfatlas.php?plz=0",
    "google_place_id": "ChIJW9dbUI6JCEcRxf5p_TpJbKg",
    "google_rating": null,
    "google_maps_url": "https://maps.google.com/?cid=12136155613565157061&g_mp=Cidnb29nbGUubWFwcy5wbGFjZXMudjEuUGxhY2VzLlNlYXJjaFRleHQQAhgEIAA"
  },
  {
    "name": "Ristorante Il Fienile",
    "street": "",
    "postcode": "03096",
    "place": "Burg",
    "lat": 51.8563806,
    "lng": 14.1083127,
    "source_priority": "atlas",
    "source_url": "https://www.minigolfsport.de/minigolfatlas.php?plz=0",
    "google_place_id": "ChIJ1x8iUoLiB0cRFRy7Vxl4M7Y",
    "google_rating": 4.4,
    "google_maps_url": "https://maps.google.com/?cid=13128969388956523541&g_mp=Cidnb29nbGUubWFwcy5wbGFjZXMudjEuUGxhY2VzLlNlYXJjaFRleHQQAhgEIAA"
  },
  {
    "name": "Zum Erlebnispark 1",
    "street": "",
    "postcode": "03185",
    "place": "Teichland",
    "lat": 51.8150113,
    "lng": 14.4353708,
    "source_priority": "atlas",
    "source_url": "https://www.minigolfsport.de/minigolfatlas.php?plz=0",
    "google_place_id": "ChIJ93L-OqDYB0cRGugiv7fArdU",
    "google_rating": null,
    "google_maps_url": "https://maps.google.com/?cid=15397174596467877914&g_mp=Cidnb29nbGUubWFwcy5wbGFjZXMudjEuUGxhY2VzLlNlYXJjaFRleHQQAhgEIAA"
  },
  {
    "name": "Poststraße 10",
    "street": "",
    "postcode": "03222",
    "place": "Lübbenau",
    "lat": 51.8656749,
    "lng": 13.9655216,
    "source_priority": "atlas",
    "source_url": "https://www.minigolfsport.de/minigolfatlas.php?plz=0",
    "google_place_id": "ChIJOc7VnV4HCEcR_sr66DLVo_M",
    "google_rating": null,
    "google_maps_url": "https://maps.google.com/?cid=17556110187054156542&g_mp=Cidnb29nbGUubWFwcy5wbGFjZXMudjEuUGxhY2VzLlNlYXJjaFRleHQQAhgEIAA"
  },
  {
    "name": "STARCAR",
    "street": "",
    "postcode": "04129",
    "place": "Leipzig",
    "lat": 51.3549892,
    "lng": 12.3874004,
    "source_priority": "atlas",
    "source_url": "https://www.minigolfsport.de/minigolfatlas.php?plz=0",
    "google_place_id": "ChIJrTGZUtr5pkcR3k8wAsBTUxk",
    "google_rating": 4.2,
    "google_maps_url": "https://maps.google.com/?cid=1824894358150729694&g_mp=Cidnb29nbGUubWFwcy5wbGFjZXMudjEuUGxhY2VzLlNlYXJjaFRleHQQAhgEIAA"
  },
  {
    "name": "AOK Sportplatz",
    "street": "",
    "postcode": "04229",
    "place": "Leipzig",
    "lat": 51.3285967,
    "lng": 12.3522893,
    "source_priority": "atlas",
    "source_url": "https://www.minigolfsport.de/minigolfatlas.php?plz=0",
    "google_place_id": "ChIJYTzmVIL3pkcRVzJ1U7gRB9E",
    "google_rating": 4.4,
    "google_maps_url": "https://maps.google.com/?cid=15062026962135757399&g_mp=Cidnb29nbGUubWFwcy5wbGFjZXMudjEuUGxhY2VzLlNlYXJjaFRleHQQAhgEIAA"
  },
  {
    "name": "Lilalicht 3D-Adventure Minigolf",
    "street": "",
    "postcode": "04229",
    "place": "Leipzig",
    "lat": 51.3417985,
    "lng": 12.372611,
    "source_priority": "atlas",
    "source_url": "https://www.minigolfsport.de/minigolfatlas.php?plz=0",
    "google_place_id": "ChIJmwtGsnz5pkcR_41fxefR8aw",
    "google_rating": 4.6,
    "google_maps_url": "https://maps.google.com/?cid=12461972437289897471&g_mp=Cidnb29nbGUubWFwcy5wbGFjZXMudjEuUGxhY2VzLlNlYXJjaFRleHQQAhgEIAA"
  },
  {
    "name": "Connewitzer Str. 21",
    "street": "",
    "postcode": "04289",
    "place": "Leipzig",
    "lat": 51.3029376,
    "lng": 12.4172094,
    "source_priority": "atlas",
    "source_url": "https://www.minigolfsport.de/minigolfatlas.php?plz=0",
    "google_place_id": "ChIJ07ZQuQ75pkcREAHGHIKXpZ8",
    "google_rating": null,
    "google_maps_url": "https://maps.google.com/?cid=11503767408272081168&g_mp=Cidnb29nbGUubWFwcy5wbGFjZXMudjEuUGxhY2VzLlNlYXJjaFRleHQQAhgEIAA"
  },
  {
    "name": "Lene-Voigt-Straße 2",
    "street": "",
    "postcode": "04289",
    "place": "Leipzig",
    "lat": 51.2979875,
    "lng": 12.4284199,
    "source_priority": "atlas",
    "source_url": "https://www.minigolfsport.de/minigolfatlas.php?plz=0",
    "google_place_id": "ChIJkUB4QRP5pkcRPnJ3wK87Lyo",
    "google_rating": null,
    "google_maps_url": "https://maps.google.com/?cid=3039713899532743230&g_mp=Cidnb29nbGUubWFwcy5wbGFjZXMudjEuUGxhY2VzLlNlYXJjaFRleHQQAhgEIAA"
  },
  {
    "name": "Ernst-Grube-Straße",
    "street": "",
    "postcode": "04610",
    "place": "Meuselwitz",
    "lat": 51.0495151,
    "lng": 12.2828623,
    "source_priority": "atlas",
    "source_url": "https://www.minigolfsport.de/minigolfatlas.php?plz=0",
    "google_place_id": "ChIJ105QeprnpkcRUUWNm_Ufi8s",
    "google_rating": null,
    "google_maps_url": "https://maps.google.com/?cid=14666851751199327569&g_mp=Cidnb29nbGUubWFwcy5wbGFjZXMudjEuUGxhY2VzLlNlYXJjaFRleHQQAhgEIAA"
  },
  {
    "name": "Freibad Vollmershain",
    "street": "",
    "postcode": "04626",
    "place": "Vollmershain",
    "lat": 50.8530961,
    "lng": 12.3074402,
    "source_priority": "atlas",
    "source_url": "https://www.minigolfsport.de/minigolfatlas.php?plz=0",
    "google_place_id": "ChIJcfzEgkPXpkcR7Lx2H0Ku1rk",
    "google_rating": 4.5,
    "google_maps_url": "https://maps.google.com/?cid=13391082141051698412&g_mp=Cidnb29nbGUubWFwcy5wbGFjZXMudjEuUGxhY2VzLlNlYXJjaFRleHQQAhgEIAA"
  },
  {
    "name": "Linda 33",
    "street": "",
    "postcode": "04655",
    "place": "Kohren-Sahlis",
    "lat": 50.9994541,
    "lng": 12.6192798,
    "source_priority": "atlas",
    "source_url": "https://www.minigolfsport.de/minigolfatlas.php?plz=0",
    "google_place_id": "ChIJfzLf-5wYp0cR3Rppc54ngEM",
    "google_rating": null,
    "google_maps_url": "https://maps.google.com/?cid=4863931159054719709&g_mp=Cidnb29nbGUubWFwcy5wbGFjZXMudjEuUGxhY2VzLlNlYXJjaFRleHQQAhgEIAA"
  },
  {
    "name": "Nimbschener Landstraße 1",
    "street": "",
    "postcode": "04668",
    "place": "Grimma",
    "lat": 51.216159,
    "lng": 12.7414274,
    "source_priority": "atlas",
    "source_url": "https://www.minigolfsport.de/minigolfatlas.php?plz=0",
    "google_place_id": "ChIJWRVFr7kFp0cRRsTBCjScwjY",
    "google_rating": null,
    "google_maps_url": "https://maps.google.com/?cid=3945887970862679110&g_mp=Cidnb29nbGUubWFwcy5wbGFjZXMudjEuUGxhY2VzLlNlYXJjaFRleHQQAhgEIAA"
  },
  {
    "name": "Zur Schiffsmühle 2",
    "street": "",
    "postcode": "04668",
    "place": "Höfgen",
    "lat": 51.2150722,
    "lng": 12.7500782,
    "source_priority": "atlas",
    "source_url": "https://www.minigolfsport.de/minigolfatlas.php?plz=0",
    "google_place_id": "ChIJF8Qma74Fp0cRZjczJvyNd-0",
    "google_rating": null,
    "google_maps_url": "https://maps.google.com/?cid=17111301423329654630&g_mp=Cidnb29nbGUubWFwcy5wbGFjZXMudjEuUGxhY2VzLlNlYXJjaFRleHQQAhgEIAA"
  },
  {
    "name": "Dorfstraße 17",
    "street": "",
    "postcode": "04668",
    "place": "Höfgen",
    "lat": 51.210327,
    "lng": 12.7562604,
    "source_priority": "atlas",
    "source_url": "https://www.minigolfsport.de/minigolfatlas.php?plz=0",
    "google_place_id": "ChIJH-WDKJcFp0cR26XCMFgAFjo",
    "google_rating": null,
    "google_maps_url": "https://maps.google.com/?cid=4185533282462639579&g_mp=Cidnb29nbGUubWFwcy5wbGFjZXMudjEuUGxhY2VzLlNlYXJjaFRleHQQAhgEIAA"
  },
  {
    "name": "Fichtestraße 10",
    "street": "",
    "postcode": "04720",
    "place": "Döbeln",
    "lat": 51.1141724,
    "lng": 13.1303426,
    "source_priority": "atlas",
    "source_url": "https://www.minigolfsport.de/minigolfatlas.php?plz=0",
    "google_place_id": "ChIJJ4KlQdhxp0cRKnXobt2oYnE",
    "google_rating": null,
    "google_maps_url": "https://maps.google.com/?cid=8170278343005467946&g_mp=Cidnb29nbGUubWFwcy5wbGFjZXMudjEuUGxhY2VzLlNlYXJjaFRleHQQAhgEIAA"
  },
  {
    "name": "Eis Cafe Bar Bönisch",
    "street": "",
    "postcode": "04895",
    "place": "Falkenberg/Elster",
    "lat": 51.5949975,
    "lng": 13.2608947,
    "source_priority": "atlas",
    "source_url": "https://www.minigolfsport.de/minigolfatlas.php?plz=0",
    "google_place_id": "ChIJhS7EX_eVp0cR0bolT-rmul8",
    "google_rating": 3.7,
    "google_maps_url": "https://maps.google.com/?cid=6898079673295944401&g_mp=Cidnb29nbGUubWFwcy5wbGFjZXMudjEuUGxhY2VzLlNlYXJjaFRleHQQAhgEIAA"
  },
  {
    "name": "Böllberger Weg 185",
    "street": "",
    "postcode": "06110",
    "place": "Halle (Saale)",
    "lat": 51.470414,
    "lng": 11.9578785,
    "source_priority": "atlas",
    "source_url": "https://www.minigolfsport.de/minigolfatlas.php?plz=0",
    "google_place_id": "ChIJUxs7uzRjpkcR--zT5umzD2Y",
    "google_rating": null,
    "google_maps_url": "https://maps.google.com/?cid=7354294533700709627&g_mp=Cidnb29nbGUubWFwcy5wbGFjZXMudjEuUGxhY2VzLlNlYXJjaFRleHQQAhgEIAA"
  },
  {
    "name": "Bergstraße",
    "street": "",
    "postcode": "06188",
    "place": "Landsberg",
    "lat": 51.5261388,
    "lng": 12.1662368,
    "source_priority": "atlas",
    "source_url": "https://www.minigolfsport.de/minigolfatlas.php?plz=0",
    "google_place_id": "ChIJIXAEcq5npkcRiwdNFxLiEpQ",
    "google_rating": null,
    "google_maps_url": "https://maps.google.com/?cid=10669839034522339211&g_mp=Cidnb29nbGUubWFwcy5wbGFjZXMudjEuUGxhY2VzLlNlYXJjaFRleHQQAhgEIAA"
  },
  {
    "name": "Pizzeria \"Fantasia Romana\"",
    "street": "",
    "postcode": "06242",
    "place": "Großkayna",
    "lat": 51.2894191,
    "lng": 11.9396863,
    "source_priority": "atlas",
    "source_url": "https://www.minigolfsport.de/minigolfatlas.php?plz=0",
    "google_place_id": "ChIJ5eG-pPuOpkcRxD7mI3Y1F60",
    "google_rating": 4.1,
    "google_maps_url": "https://maps.google.com/?cid=12472496474550582980&g_mp=Cidnb29nbGUubWFwcy5wbGFjZXMudjEuUGxhY2VzLlNlYXJjaFRleHQQAhgEIAA"
  },
  {
    "name": "Hauptstraße",
    "street": "",
    "postcode": "06311",
    "place": "Helbra",
    "lat": 51.5528624,
    "lng": 11.4743554,
    "source_priority": "atlas",
    "source_url": "https://www.minigolfsport.de/minigolfatlas.php?plz=0",
    "google_place_id": "EiNIYXVwdHN0cmHDn2UsIDA2MzExIEhlbGJyYSwgR2VybWFueSIuKiwKFAoSCQX0qllpzqVHEW4fze4qEnHvEhQKEgk_Dk4hbc6lRxGQ8eBGXWYjHA",
    "google_rating": null,
    "google_maps_url": "https://maps.google.com/?q=Hauptstra%C3%9Fe,+06311+Helbra,+Deutschland&ftid=0x47a5ce6959aaf405:0xef71122aeecd1f6e&g_mp=Cidnb29nbGUubWFwcy5wbGFjZXMudjEuUGxhY2VzLlNlYXJjaFRleHQQAhgEIAA"
  },
  {
    "name": "Arnstedter Str. 2",
    "street": "",
    "postcode": "06333",
    "place": "Quenstedt",
    "lat": 51.6953677,
    "lng": 11.4569566,
    "source_priority": "atlas",
    "source_url": "https://www.minigolfsport.de/minigolfatlas.php?plz=0",
    "google_place_id": "ChIJ3_7cd6LGpUcRd-XP2lvDhys",
    "google_rating": null,
    "google_maps_url": "https://maps.google.com/?cid=3136690464767337847&g_mp=Cidnb29nbGUubWFwcy5wbGFjZXMudjEuUGxhY2VzLlNlYXJjaFRleHQQAhgEIAA"
  },
  {
    "name": "Minigolf-Anlage am Ratswall",
    "street": "",
    "postcode": "06366",
    "place": "Köthen",
    "lat": 51.7589351,
    "lng": 11.9764998,
    "source_priority": "atlas",
    "source_url": "https://www.minigolfsport.de/minigolfatlas.php?plz=0",
    "google_place_id": "ChIJOffRDa8MpkcRnlQ_CEFaFis",
    "google_rating": 4.2,
    "google_maps_url": "https://maps.google.com/?cid=3104768228476277918&g_mp=Cidnb29nbGUubWFwcy5wbGFjZXMudjEuUGxhY2VzLlNlYXJjaFRleHQQAhgEIAA"
  },
  {
    "name": "Brumbyer Str. 5",
    "street": "",
    "postcode": "06429",
    "place": "Neugattersleben",
    "lat": 51.8551074,
    "lng": 11.7087568,
    "source_priority": "atlas",
    "source_url": "https://www.minigolfsport.de/minigolfatlas.php?plz=0",
    "google_place_id": "ChIJH5Lzon3mpUcRnqVAkV4KGoE",
    "google_rating": null,
    "google_maps_url": "https://maps.google.com/?cid=9302759381567317406&g_mp=Cidnb29nbGUubWFwcy5wbGFjZXMudjEuUGxhY2VzLlNlYXJjaFRleHQQAhgEIAA"
  },
  {
    "name": "Mühlweg 159A",
    "street": "",
    "postcode": "06493",
    "place": "Neudorf",
    "lat": 51.6098675,
    "lng": 11.1104665,
    "source_priority": "atlas",
    "source_url": "https://www.minigolfsport.de/minigolfatlas.php?plz=0",
    "google_place_id": "ChIJD1RJtcexpUcRujBkAbRn8TM",
    "google_rating": null,
    "google_maps_url": "https://maps.google.com/?cid=3742886788136710330&g_mp=Cidnb29nbGUubWFwcy5wbGFjZXMudjEuUGxhY2VzLlNlYXJjaFRleHQQAhgEIAA"
  },
  {
    "name": "Talstation Kabinenbahn Hexentanzplatz",
    "street": "",
    "postcode": "06502",
    "place": "Thale",
    "lat": 51.7414009,
    "lng": 11.026412,
    "source_priority": "atlas",
    "source_url": "https://www.minigolfsport.de/minigolfatlas.php?plz=0",
    "google_place_id": "ChIJezSAsB6kpUcRqrr2pcThhs4",
    "google_rating": 4.7,
    "google_maps_url": "https://maps.google.com/?cid=14881830253406632618&g_mp=Cidnb29nbGUubWFwcy5wbGFjZXMudjEuUGxhY2VzLlNlYXJjaFRleHQQAhgEIAA"
  },
  {
    "name": "Teichstraße 28",
    "street": "",
    "postcode": "06502",
    "place": "Allrode",
    "lat": 51.6779105,
    "lng": 10.9666691,
    "source_priority": "atlas",
    "source_url": "https://www.minigolfsport.de/minigolfatlas.php?plz=0",
    "google_place_id": "ChIJMQ3eGqCopUcRP3kxyC8dPgw",
    "google_rating": null,
    "google_maps_url": "https://maps.google.com/?cid=882174668070549823&g_mp=Cidnb29nbGUubWFwcy5wbGFjZXMudjEuUGxhY2VzLlNlYXJjaFRleHQQAhgEIAA"
  },
  {
    "name": "Hexentanzpl. 4",
    "street": "",
    "postcode": "06502",
    "place": "Thale",
    "lat": 51.7268556,
    "lng": 11.0254279,
    "source_priority": "atlas",
    "source_url": "https://www.minigolfsport.de/minigolfatlas.php?plz=0",
    "google_place_id": "ChIJmVGXYyakpUcRxhF-o6cVrKw",
    "google_rating": null,
    "google_maps_url": "https://maps.google.com/?cid=12442343680264507846&g_mp=Cidnb29nbGUubWFwcy5wbGFjZXMudjEuUGxhY2VzLlNlYXJjaFRleHQQAhgEIAA"
  },
  {
    "name": "Am Festpl. 9",
    "street": "",
    "postcode": "06528",
    "place": "Riestedt",
    "lat": 51.4940857,
    "lng": 11.3548012,
    "source_priority": "atlas",
    "source_url": "https://www.minigolfsport.de/minigolfatlas.php?plz=0",
    "google_place_id": "ChIJJShUTBXLpUcRdOYZI2dF_4g",
    "google_rating": null,
    "google_maps_url": "https://maps.google.com/?cid=9871685217492264564&g_mp=Cidnb29nbGUubWFwcy5wbGFjZXMudjEuUGxhY2VzLlNlYXJjaFRleHQQAhgEIAA"
  },
  {
    "name": "Am Quellgrund 14",
    "street": "",
    "postcode": "06567",
    "place": "Bad Frankenhausen",
    "lat": 51.3599152,
    "lng": 11.1021005,
    "source_priority": "atlas",
    "source_url": "https://www.minigolfsport.de/minigolfatlas.php?plz=0",
    "google_place_id": "ChIJ7z1OrdNIpEcR-Iv2L2gbcZs",
    "google_rating": null,
    "google_maps_url": "https://maps.google.com/?cid=11200763882542369784&g_mp=Cidnb29nbGUubWFwcy5wbGFjZXMudjEuUGxhY2VzLlNlYXJjaFRleHQQAhgEIAA"
  },
  {
    "name": "Str. d. Einheit 29",
    "street": "",
    "postcode": "06638",
    "place": "Karsdorf",
    "lat": 51.2786708,
    "lng": 11.6579875,
    "source_priority": "atlas",
    "source_url": "https://www.minigolfsport.de/minigolfatlas.php?plz=0",
    "google_place_id": "ChIJMb87S7CCpkcRiiB8fGLyOAk",
    "google_rating": null,
    "google_maps_url": "https://maps.google.com/?cid=664547449846374538&g_mp=Cidnb29nbGUubWFwcy5wbGFjZXMudjEuUGxhY2VzLlNlYXJjaFRleHQQAhgEIAA"
  },
  {
    "name": "Rodler-Treff",
    "street": "",
    "postcode": "06648",
    "place": "Eckartsberga",
    "lat": 51.1191931,
    "lng": 11.562356,
    "source_priority": "atlas",
    "source_url": "https://www.minigolfsport.de/minigolfatlas.php?plz=0",
    "google_place_id": "ChIJWSRGgskhpEcRa8CGKQowOUQ",
    "google_rating": 3,
    "google_maps_url": "https://maps.google.com/?cid=4916013288456110187&g_mp=Cidnb29nbGUubWFwcy5wbGFjZXMudjEuUGxhY2VzLlNlYXJjaFRleHQQAhgEIAA"
  },
  {
    "name": "Güldene Hufe 10",
    "street": "",
    "postcode": "06667",
    "place": "Weissenfels",
    "lat": 51.1944225,
    "lng": 11.9355979,
    "source_priority": "atlas",
    "source_url": "https://www.minigolfsport.de/minigolfatlas.php?plz=0",
    "google_place_id": "ChIJNWVBpHqRpkcRoEmn16i3d48",
    "google_rating": null,
    "google_maps_url": "https://maps.google.com/?cid=10337933405452716448&g_mp=Cidnb29nbGUubWFwcy5wbGFjZXMudjEuUGxhY2VzLlNlYXJjaFRleHQQAhgEIAA"
  },
  {
    "name": "Kreuzbergstraße 179",
    "street": "",
    "postcode": "06849",
    "place": "Dessau",
    "lat": 51.8103382,
    "lng": 12.2550296,
    "source_priority": "atlas",
    "source_url": "https://www.minigolfsport.de/minigolfatlas.php?plz=0",
    "google_place_id": "ChIJgzgiPp8WpkcRVxzjHuXnl_w",
    "google_rating": null,
    "google_maps_url": "https://maps.google.com/?cid=18201271390292876375&g_mp=Cidnb29nbGUubWFwcy5wbGFjZXMudjEuUGxhY2VzLlNlYXJjaFRleHQQAhgEIAA"
  },
  {
    "name": "Wiesenstraße",
    "street": "",
    "postcode": "06895",
    "place": "Zahna",
    "lat": 51.92151,
    "lng": 12.7879319,
    "source_priority": "atlas",
    "source_url": "https://www.minigolfsport.de/minigolfatlas.php?plz=0",
    "google_place_id": "ChIJcQ4kbPUrpkcRemUC6nO19Nc",
    "google_rating": null,
    "google_maps_url": "https://maps.google.com/?cid=15561262121923798394&g_mp=Cidnb29nbGUubWFwcy5wbGFjZXMudjEuUGxhY2VzLlNlYXJjaFRleHQQAhgEIAA"
  },
  {
    "name": "Am Brink 3",
    "street": "",
    "postcode": "06909",
    "place": "Sewekow",
    "lat": 53.250317,
    "lng": 12.6543247,
    "source_priority": "atlas",
    "source_url": "https://www.minigolfsport.de/minigolfatlas.php?plz=0",
    "google_place_id": "ChIJmeo-xO9RqUcRzdrIappjArE",
    "google_rating": null,
    "google_maps_url": "https://maps.google.com/?cid=12754866609534327501&g_mp=Cidnb29nbGUubWFwcy5wbGFjZXMudjEuUGxhY2VzLlNlYXJjaFRleHQQAhgEIAA"
  },
  {
    "name": "Ortsstraße",
    "street": "",
    "postcode": "07338",
    "place": "Hohenwarte",
    "lat": 50.605561,
    "lng": 11.4797683,
    "source_priority": "atlas",
    "source_url": "https://www.minigolfsport.de/minigolfatlas.php?plz=0",
    "google_place_id": "ChIJsZrGRwFaoUcRmmg7yv7BDuM",
    "google_rating": null,
    "google_maps_url": "https://maps.google.com/?cid=16361227796342335642&g_mp=Cidnb29nbGUubWFwcy5wbGFjZXMudjEuUGxhY2VzLlNlYXJjaFRleHQQAhgEIAA"
  },
  {
    "name": "Zum alten Forsthaus",
    "street": "",
    "postcode": "07356",
    "place": "Bad Lobenstein",
    "lat": 50.4582189,
    "lng": 11.6495785,
    "source_priority": "atlas",
    "source_url": "https://www.minigolfsport.de/minigolfatlas.php?plz=0",
    "google_place_id": "ChIJe2OsC49BoUcRnmIk4NAfKyA",
    "google_rating": 4.4,
    "google_maps_url": "https://maps.google.com/?cid=2317981415186391710&g_mp=Cidnb29nbGUubWFwcy5wbGFjZXMudjEuUGxhY2VzLlNlYXJjaFRleHQQAhgEIAA"
  },
  {
    "name": "Campingplatz Neumannshof",
    "street": "",
    "postcode": "07389",
    "place": "Gössitz",
    "lat": 50.6049204,
    "lng": 11.5951093,
    "source_priority": "atlas",
    "source_url": "https://www.minigolfsport.de/minigolfatlas.php?plz=0",
    "google_place_id": "ChIJi4LjwFVFoUcRJWowz4-pi28",
    "google_rating": 4.1,
    "google_maps_url": "https://maps.google.com/?cid=8037704395094256165&g_mp=Cidnb29nbGUubWFwcy5wbGFjZXMudjEuUGxhY2VzLlNlYXJjaFRleHQQAhgEIAA"
  },
  {
    "name": "Hofwiesenpark",
    "street": "",
    "postcode": "07548",
    "place": "Gera",
    "lat": 50.8815874,
    "lng": 12.0712246,
    "source_priority": "atlas",
    "source_url": "https://www.minigolfsport.de/minigolfatlas.php?plz=0",
    "google_place_id": "ChIJgUwkVEPPpkcRfF9emwp24oI",
    "google_rating": 4.5,
    "google_maps_url": "https://maps.google.com/?cid=9431230357595643772&g_mp=Cidnb29nbGUubWFwcy5wbGFjZXMudjEuUGxhY2VzLlNlYXJjaFRleHQQAhgEIAA"
  },
  {
    "name": "Faulenzerweg",
    "street": "",
    "postcode": "07548",
    "place": "Gera",
    "lat": 50.8774116,
    "lng": 12.0660412,
    "source_priority": "atlas",
    "source_url": "https://www.minigolfsport.de/minigolfatlas.php?plz=0",
    "google_place_id": "ChIJ0_nZL0HPpkcR7BXrlqwAmKo",
    "google_rating": null,
    "google_maps_url": "https://maps.google.com/?cid=12292575924174132716&g_mp=Cidnb29nbGUubWFwcy5wbGFjZXMudjEuUGxhY2VzLlNlYXJjaFRleHQQAhgEIAA"
  },
  {
    "name": "McMahon’s B ‘ Irish Pub",
    "street": "",
    "postcode": "07551",
    "place": "Gera",
    "lat": 48.7072616,
    "lng": 12.2977027,
    "source_priority": "atlas",
    "source_url": "https://www.minigolfsport.de/minigolfatlas.php?plz=0",
    "google_place_id": "ChIJ0aQ8rW3Vn0cRFbc1nXmBEHI",
    "google_rating": 4.9,
    "google_maps_url": "https://maps.google.com/?cid=8219211679279724309&g_mp=Cidnb29nbGUubWFwcy5wbGFjZXMudjEuUGxhY2VzLlNlYXJjaFRleHQQAhgEIAA"
  },
  {
    "name": "Liebsdorfer Str. 6",
    "street": "",
    "postcode": "07570",
    "place": "Weida",
    "lat": 50.7747648,
    "lng": 12.0395338,
    "source_priority": "atlas",
    "source_url": "https://www.minigolfsport.de/minigolfatlas.php?plz=0",
    "google_place_id": "ChIJR8xUbVvMpkcRyPF8br71oaQ",
    "google_rating": null,
    "google_maps_url": "https://maps.google.com/?cid=11863033091716870600&g_mp=Cidnb29nbGUubWFwcy5wbGFjZXMudjEuUGxhY2VzLlNlYXJjaFRleHQQAhgEIAA"
  },
  {
    "name": "Bowlingtreff & Minigolf",
    "street": "",
    "postcode": "07639",
    "place": "Bad Klosterlausnitz",
    "lat": 50.9079137,
    "lng": 11.8604961,
    "source_priority": "atlas",
    "source_url": "https://www.minigolfsport.de/minigolfatlas.php?plz=0",
    "google_place_id": "ChIJc9EGDF23pkcRzYKnC9-vmDQ",
    "google_rating": 4.5,
    "google_maps_url": "https://maps.google.com/?cid=3789972458940367565&g_mp=Cidnb29nbGUubWFwcy5wbGFjZXMudjEuUGxhY2VzLlNlYXJjaFRleHQQAhgEIAA"
  },
  {
    "name": "Tierparkstraße 5",
    "street": "",
    "postcode": "08144",
    "place": "Hirschfeld",
    "lat": 50.6281083,
    "lng": 12.437218,
    "source_priority": "atlas",
    "source_url": "https://www.minigolfsport.de/minigolfatlas.php?plz=0",
    "google_place_id": "ChIJOTxPaLDToEcRUHhHmem7Qmo",
    "google_rating": null,
    "google_maps_url": "https://maps.google.com/?cid=7656888928456636496&g_mp=Cidnb29nbGUubWFwcy5wbGFjZXMudjEuUGxhY2VzLlNlYXJjaFRleHQQAhgEIAA"
  },
  {
    "name": "Hotel Gasthof zum Walfisch",
    "street": "",
    "postcode": "08267",
    "place": "Zwota",
    "lat": 50.3551506,
    "lng": 12.4342408,
    "source_priority": "atlas",
    "source_url": "https://www.minigolfsport.de/minigolfatlas.php?plz=0",
    "google_place_id": "ChIJJabsYo_CoEcRSkQ2cZ67Tx4",
    "google_rating": 4.7,
    "google_maps_url": "https://maps.google.com/?cid=2184170633476588618&g_mp=Cidnb29nbGUubWFwcy5wbGFjZXMudjEuUGxhY2VzLlNlYXJjaFRleHQQAhgEIAA"
  },
  {
    "name": "Kleinbernsdorfer Str. 10",
    "street": "",
    "postcode": "08412",
    "place": "Werdau",
    "lat": 50.7677463,
    "lng": 12.352338,
    "source_priority": "atlas",
    "source_url": "https://www.minigolfsport.de/minigolfatlas.php?plz=0",
    "google_place_id": "ChIJ29RklAYqp0cRp_FKsHA-U-Y",
    "google_rating": null,
    "google_maps_url": "https://maps.google.com/?cid=16596677705505370535&g_mp=Cidnb29nbGUubWFwcy5wbGFjZXMudjEuUGxhY2VzLlNlYXJjaFRleHQQAhgEIAA"
  },
  {
    "name": "Freizeitanlagen Syratal mit Parkeisenbahn",
    "street": "",
    "postcode": "08527",
    "place": "Plauen",
    "lat": 50.4991791,
    "lng": 12.123823,
    "source_priority": "atlas",
    "source_url": "https://www.minigolfsport.de/minigolfatlas.php?plz=0",
    "google_place_id": "ChIJj88sBoYmoUcRpfZTYyl34nc",
    "google_rating": 4.6,
    "google_maps_url": "https://maps.google.com/?cid=8638598054893844133&g_mp=Cidnb29nbGUubWFwcy5wbGFjZXMudjEuUGxhY2VzLlNlYXJjaFRleHQQAhgEIAA"
  },
  {
    "name": "Talsperre Pöhl",
    "street": "",
    "postcode": "08543",
    "place": "Pöhl",
    "lat": 50.5543437,
    "lng": 12.1848826,
    "source_priority": "atlas",
    "source_url": "https://www.minigolfsport.de/minigolfatlas.php?plz=0",
    "google_place_id": "ChIJ-WjUyHgooUcRo3Y-dZzyp_I",
    "google_rating": 4.5,
    "google_maps_url": "https://maps.google.com/?cid=17485210832085087907&g_mp=Cidnb29nbGUubWFwcy5wbGFjZXMudjEuUGxhY2VzLlNlYXJjaFRleHQQAhgEIAA"
  },
  {
    "name": "Rathaus",
    "street": "",
    "postcode": "09217",
    "place": "Burgstädt",
    "lat": 50.9199964,
    "lng": 12.8059428,
    "source_priority": "atlas",
    "source_url": "https://www.minigolfsport.de/minigolfatlas.php?plz=0",
    "google_place_id": "ChIJBwFgGeY-p0cRh5lOgjYc2Y0",
    "google_rating": 3.3,
    "google_maps_url": "https://maps.google.com/?cid=10221231849734052231&g_mp=Cidnb29nbGUubWFwcy5wbGFjZXMudjEuUGxhY2VzLlNlYXJjaFRleHQQAhgEIAA"
  },
  {
    "name": "Dittmannsdorfer Str. 48",
    "street": "",
    "postcode": "09322",
    "place": "Penig",
    "lat": 50.9419961,
    "lng": 12.7067843,
    "source_priority": "atlas",
    "source_url": "https://www.minigolfsport.de/minigolfatlas.php?plz=0",
    "google_place_id": "ChIJh6rEWfk8p0cRTpTpOVJTynk",
    "google_rating": null,
    "google_maps_url": "https://maps.google.com/?cid=8775918436508865614&g_mp=Cidnb29nbGUubWFwcy5wbGFjZXMudjEuUGxhY2VzLlNlYXJjaFRleHQQAhgEIAA"
  },
  {
    "name": "Bildungs- und Freizeitzentrum Tabakstanne",
    "street": "",
    "postcode": "09380",
    "place": "09380 Thalheim",
    "lat": 50.7042378,
    "lng": 12.8256248,
    "source_priority": "atlas",
    "source_url": "https://www.minigolfsport.de/minigolfatlas.php?plz=0",
    "google_place_id": "ChIJ6UwxtDdKp0cRv-X8cgm8RBI",
    "google_rating": 4.4,
    "google_maps_url": "https://maps.google.com/?cid=1316383739868931519&g_mp=Cidnb29nbGUubWFwcy5wbGFjZXMudjEuUGxhY2VzLlNlYXJjaFRleHQQAhgEIAA"
  },
  {
    "name": "Villa Wilisch",
    "street": "",
    "postcode": "09439",
    "place": "Amtsberg-Wilischthal",
    "lat": 50.729846,
    "lng": 13.0437409,
    "source_priority": "atlas",
    "source_url": "https://www.minigolfsport.de/minigolfatlas.php?plz=0",
    "google_place_id": "ChIJgR488sVRp0cRXp9v9YrbjGc",
    "google_rating": 4.7,
    "google_maps_url": "https://maps.google.com/?cid=7461580072515772254&g_mp=Cidnb29nbGUubWFwcy5wbGFjZXMudjEuUGxhY2VzLlNlYXJjaFRleHQQAhgEIAA"
  },
  {
    "name": "Campingpark Greifensteine",
    "street": "",
    "postcode": "09468",
    "place": "Geyer",
    "lat": 50.6434758,
    "lng": 12.9105624,
    "source_priority": "atlas",
    "source_url": "https://www.minigolfsport.de/minigolfatlas.php?plz=0",
    "google_place_id": "ChIJ49m3-NpMp0cRKilr3gj7CIk",
    "google_rating": 4.4,
    "google_maps_url": "https://maps.google.com/?cid=9874418198519687466&g_mp=Cidnb29nbGUubWFwcy5wbGFjZXMudjEuUGxhY2VzLlNlYXJjaFRleHQQAhgEIAA"
  },
  {
    "name": "Panorama Hotel Oberwiesenthal",
    "street": "",
    "postcode": "09484",
    "place": "Oberwiesenthal",
    "lat": 50.4276651,
    "lng": 12.9668238,
    "source_priority": "atlas",
    "source_url": "https://www.minigolfsport.de/minigolfatlas.php?plz=0",
    "google_place_id": "ChIJzaBLubiloEcRnGdVB_2QH-8",
    "google_rating": 4,
    "google_maps_url": "https://maps.google.com/?cid=17230650115766970268&g_mp=Cidnb29nbGUubWFwcy5wbGFjZXMudjEuUGxhY2VzLlNlYXJjaFRleHQQAhgEIAA"
  },
  {
    "name": "Oberwiesenthaler Str. 14",
    "street": "",
    "postcode": "09491",
    "place": "Bärenstein",
    "lat": 50.4965056,
    "lng": 13.027398,
    "source_priority": "atlas",
    "source_url": "https://www.minigolfsport.de/minigolfatlas.php?plz=0",
    "google_place_id": "ChIJSwZXE9OuoEcRT6XICdwFBOk",
    "google_rating": null,
    "google_maps_url": "https://maps.google.com/?cid=16790551753359140175&g_mp=Cidnb29nbGUubWFwcy5wbGFjZXMudjEuUGxhY2VzLlNlYXJjaFRleHQQAhgEIAA"
  },
  {
    "name": "Feriendorf Schwarzwassertal",
    "street": "",
    "postcode": "09496",
    "place": "Pobershau",
    "lat": 50.6432018,
    "lng": 13.2337422,
    "source_priority": "atlas",
    "source_url": "https://www.minigolfsport.de/minigolfatlas.php?plz=0",
    "google_place_id": "ChIJ0dhoVjD-CUcRNwGiQOC0Opw",
    "google_rating": 4.7,
    "google_maps_url": "https://maps.google.com/?cid=11257509093816009015&g_mp=Cidnb29nbGUubWFwcy5wbGFjZXMudjEuUGxhY2VzLlNlYXJjaFRleHQQAhgEIAA"
  },
  {
    "name": "Stockhausen",
    "street": "",
    "postcode": "09526",
    "place": "Olbernhau",
    "lat": 50.649559,
    "lng": 13.3673491,
    "source_priority": "atlas",
    "source_url": "https://www.minigolfsport.de/minigolfatlas.php?plz=0",
    "google_place_id": "ChIJU8hVQmj5CUcRVQfNHBnsw7Q",
    "google_rating": 4.7,
    "google_maps_url": "https://maps.google.com/?cid=13025514139887142741&g_mp=Cidnb29nbGUubWFwcy5wbGFjZXMudjEuUGxhY2VzLlNlYXJjaFRleHQQAhgEIAA"
  },
  {
    "name": "Ferienpark Seiffen",
    "street": "",
    "postcode": "09548",
    "place": "Seiffen",
    "lat": 50.6271884,
    "lng": 13.455641,
    "source_priority": "atlas",
    "source_url": "https://www.minigolfsport.de/minigolfatlas.php?plz=0",
    "google_place_id": "ChIJ0RQfhWj3CUcRJKNrIdl9aIA",
    "google_rating": 4.4,
    "google_maps_url": "https://maps.google.com/?cid=9252783805954761508&g_mp=Cidnb29nbGUubWFwcy5wbGFjZXMudjEuUGxhY2VzLlNlYXJjaFRleHQQAhgEIAA"
  },
  {
    "name": "Sportunterkunft des Fördervereins für Nachwuchssport e.V.",
    "street": "",
    "postcode": "09557",
    "place": "Flöha",
    "lat": 50.8601394,
    "lng": 13.0637288,
    "source_priority": "atlas",
    "source_url": "https://www.minigolfsport.de/minigolfatlas.php?plz=0",
    "google_place_id": "ChIJeWe5GqREp0cRjviHHNbRb8A",
    "google_rating": 4.6,
    "google_maps_url": "https://maps.google.com/?cid=13866532495228926094&g_mp=Cidnb29nbGUubWFwcy5wbGFjZXMudjEuUGxhY2VzLlNlYXJjaFRleHQQAhgEIAA"
  },
  {
    "name": "Gasthof \"Goldener Stern\"",
    "street": "",
    "postcode": "09569",
    "place": "Oederan",
    "lat": 50.8766892,
    "lng": 13.2059125,
    "source_priority": "atlas",
    "source_url": "https://www.minigolfsport.de/minigolfatlas.php?plz=0",
    "google_place_id": "ChIJgdUw0TBcp0cRkoPmqAnQ2gk",
    "google_rating": 4.6,
    "google_maps_url": "https://maps.google.com/?cid=710108631171236754&g_mp=Cidnb29nbGUubWFwcy5wbGFjZXMudjEuUGxhY2VzLlNlYXJjaFRleHQQAhgEIAA"
  },
  {
    "name": "Am Stadtbad 1",
    "street": "",
    "postcode": "09648",
    "place": "Mittweida",
    "lat": 50.9890356,
    "lng": 12.9645937,
    "source_priority": "atlas",
    "source_url": "https://www.minigolfsport.de/minigolfatlas.php?plz=0",
    "google_place_id": "ChIJzzPLpvZqp0cReJChjlzg6DQ",
    "google_rating": null,
    "google_maps_url": "https://maps.google.com/?cid=3812543772703690872&g_mp=Cidnb29nbGUubWFwcy5wbGFjZXMudjEuUGxhY2VzLlNlYXJjaFRleHQQAhgEIAA"
  },
  {
    "name": "Minigolf",
    "street": "",
    "postcode": "10559",
    "place": "Berlin",
    "lat": 52.5211823,
    "lng": 13.1634988,
    "source_priority": "atlas",
    "source_url": "https://www.minigolfsport.de/minigolfatlas.php?plz=1",
    "google_place_id": "ChIJ_Z4OBKJRqEcRbd6hcGMjsoM",
    "google_rating": 4.2,
    "google_maps_url": "https://maps.google.com/?cid=9489686274821447277&g_mp=Cidnb29nbGUubWFwcy5wbGFjZXMudjEuUGxhY2VzLlNlYXJjaFRleHQQAhgEIAA"
  },
  {
    "name": "Str. am Schoelerpark 35",
    "street": "",
    "postcode": "10715",
    "place": "Berlin",
    "lat": 52.4843876,
    "lng": 13.3219847,
    "source_priority": "atlas",
    "source_url": "https://www.minigolfsport.de/minigolfatlas.php?plz=1",
    "google_place_id": "ChIJD1UTQopQqEcRUP2bCUyuJqI",
    "google_rating": null,
    "google_maps_url": "https://maps.google.com/?cid=11684217924861295952&g_mp=Cidnb29nbGUubWFwcy5wbGFjZXMudjEuUGxhY2VzLlNlYXJjaFRleHQQAhgEIAA"
  },
  {
    "name": "Minigolf Brachvogel",
    "street": "",
    "postcode": "10961",
    "place": "Berlin",
    "lat": 52.4968062,
    "lng": 13.3995505,
    "source_priority": "atlas",
    "source_url": "https://www.minigolfsport.de/minigolfatlas.php?plz=1",
    "google_place_id": "ChIJqS44FOtPqEcRLkJbXKh8r6Y",
    "google_rating": 5,
    "google_maps_url": "https://maps.google.com/?cid=12010955793766236718&g_mp=Cidnb29nbGUubWFwcy5wbGFjZXMudjEuUGxhY2VzLlNlYXJjaFRleHQQAhgEIAA"
  },
  {
    "name": "Columbiadamm 88",
    "street": "",
    "postcode": "10965",
    "place": "Berlin",
    "lat": 52.4836655,
    "lng": 13.4005492,
    "source_priority": "atlas",
    "source_url": "https://www.minigolfsport.de/minigolfatlas.php?plz=1",
    "google_place_id": "ChIJ18IjqdxPqEcR15DvtZXnDHA",
    "google_rating": null,
    "google_maps_url": "https://maps.google.com/?cid=8074082862156976343&g_mp=Cidnb29nbGUubWFwcy5wbGFjZXMudjEuUGxhY2VzLlNlYXJjaFRleHQQAhgEIAA"
  },
  {
    "name": "Volkspark Hasenheide - Spielplatz III",
    "street": "",
    "postcode": "10967",
    "place": "Berlin",
    "lat": 52.4867721,
    "lng": 13.417434,
    "source_priority": "atlas",
    "source_url": "https://www.minigolfsport.de/minigolfatlas.php?plz=1",
    "google_place_id": "ChIJfdm_bMdPqEcRmJ91V9EKb_4",
    "google_rating": 4.7,
    "google_maps_url": "https://maps.google.com/?cid=18333884502280347544&g_mp=Cidnb29nbGUubWFwcy5wbGFjZXMudjEuUGxhY2VzLlNlYXJjaFRleHQQAhgEIAA"
  },
  {
    "name": "im Görlitzer Park",
    "street": "",
    "postcode": "10997",
    "place": "Berlin",
    "lat": 52.4983939,
    "lng": 13.4336934,
    "source_priority": "atlas",
    "source_url": "https://www.minigolfsport.de/minigolfatlas.php?plz=1",
    "google_place_id": "ChIJhWI7e0tOqEcRj7kqhp5YCfU",
    "google_rating": null,
    "google_maps_url": "https://maps.google.com/?cid=17656741251961764239&g_mp=Cidnb29nbGUubWFwcy5wbGFjZXMudjEuUGxhY2VzLlNlYXJjaFRleHQQAhgEIAA"
  },
  {
    "name": "Hertzberg Golf",
    "street": "",
    "postcode": "12059",
    "place": "Berlin",
    "lat": 52.477889,
    "lng": 13.4489241,
    "source_priority": "atlas",
    "source_url": "https://www.minigolfsport.de/minigolfatlas.php?plz=1",
    "google_place_id": "ChIJ_8DPGwpPqEcRBRjKdBjFMu4",
    "google_rating": 4.6,
    "google_maps_url": "https://maps.google.com/?cid=17163997838691670021&g_mp=Cidnb29nbGUubWFwcy5wbGFjZXMudjEuUGxhY2VzLlNlYXJjaFRleHQQAhgEIAA"
  },
  {
    "name": "Am Stadtpark",
    "street": "",
    "postcode": "12167",
    "place": "Berlin",
    "lat": 52.4469491,
    "lng": 13.3341067,
    "source_priority": "atlas",
    "source_url": "https://www.minigolfsport.de/minigolfatlas.php?plz=1",
    "google_place_id": "ChIJKVxDCJRaqEcRbdktofWucDQ",
    "google_rating": null,
    "google_maps_url": "https://maps.google.com/?cid=3778712457358203245&g_mp=Cidnb29nbGUubWFwcy5wbGFjZXMudjEuUGxhY2VzLlNlYXJjaFRleHQQAhgEIAA"
  },
  {
    "name": "Königsberger Straße",
    "street": "",
    "postcode": "12207",
    "place": "Berlin",
    "lat": 52.4313026,
    "lng": 13.3096291,
    "source_priority": "atlas",
    "source_url": "https://www.minigolfsport.de/minigolfatlas.php?plz=1",
    "google_place_id": "EkRLw7ZuaWdzYmVyZ2VyIFN0ci4sIDEyMjA3IEJlcmxpbi1CZXppcmsgU3RlZ2xpdHotWmVobGVuZG9yZiwgR2VybWFueSIuKiwKFAoSCbs2vOzkWqhHEdV-o2aEnehoEhQKEgmXjEwjHVuoRxGA4D2VSSAhHA",
    "google_rating": null,
    "google_maps_url": "https://maps.google.com/?q=K%C3%B6nigsberger+Str.,+12207+Berlin-Bezirk+Steglitz-Zehlendorf,+Deutschland&ftid=0x47a85ae4ecbc36bb:0x68e89d8466a37ed5&g_mp=Cidnb29nbGUubWFwcy5wbGFjZXMudjEuUGxhY2VzLlNlYXJjaFRleHQQAhgEIAA"
  },
  {
    "name": "Minigolf am Gemeindepark",
    "street": "",
    "postcode": "12247",
    "place": "Berlin",
    "lat": 52.4330087,
    "lng": 13.3521997,
    "source_priority": "atlas",
    "source_url": "https://www.minigolfsport.de/minigolfatlas.php?plz=1",
    "google_place_id": "ChIJuW54Hc9aqEcRMcjCT4Z4NpY",
    "google_rating": 4.3,
    "google_maps_url": "https://maps.google.com/?cid=10823971272690681905&g_mp=Cidnb29nbGUubWFwcy5wbGFjZXMudjEuUGxhY2VzLlNlYXJjaFRleHQQAhgEIAA"
  },
  {
    "name": "Miniaturgolf-Verein 65 e.V.",
    "street": "",
    "postcode": "12277",
    "place": "Berlin",
    "lat": 52.4174214,
    "lng": 13.3652923,
    "source_priority": "atlas",
    "source_url": "https://www.minigolfsport.de/minigolfatlas.php?plz=1",
    "google_place_id": "ChIJWUj-3SlFqEcRJgnog6igK4M",
    "google_rating": 4.5,
    "google_maps_url": "https://maps.google.com/?cid=9451824888595089702&g_mp=Cidnb29nbGUubWFwcy5wbGFjZXMudjEuUGxhY2VzLlNlYXJjaFRleHQQAhgEIAA"
  },
  {
    "name": "Buschkrugallee 170",
    "street": "",
    "postcode": "12359",
    "place": "Berlin-Britz",
    "lat": 52.4486432,
    "lng": 13.4533608,
    "source_priority": "atlas",
    "source_url": "https://www.minigolfsport.de/minigolfatlas.php?plz=1",
    "google_place_id": "ChIJNVhUt4lFqEcRgv-78JvJ6sM",
    "google_rating": null,
    "google_maps_url": "https://maps.google.com/?cid=14117317653542207362&g_mp=Cidnb29nbGUubWFwcy5wbGFjZXMudjEuUGxhY2VzLlNlYXJjaFRleHQQAhgEIAA"
  },
  {
    "name": "Citygolf Berlin",
    "street": "",
    "postcode": "12689",
    "place": "Berlin",
    "lat": 52.5628429,
    "lng": 13.5691041,
    "source_priority": "atlas",
    "source_url": "https://www.minigolfsport.de/minigolfatlas.php?plz=1",
    "google_place_id": "ChIJh4MjlpxLqEcRm3pzvXf8qKA",
    "google_rating": 4,
    "google_maps_url": "https://maps.google.com/?cid=11576780433365629595&g_mp=Cidnb29nbGUubWFwcy5wbGFjZXMudjEuUGxhY2VzLlNlYXJjaFRleHQQAhgEIAA"
  },
  {
    "name": "Am Schäfersee",
    "street": "",
    "postcode": "13407",
    "place": "Berlin",
    "lat": 52.564095,
    "lng": 13.3640056,
    "source_priority": "atlas",
    "source_url": "https://www.minigolfsport.de/minigolfatlas.php?plz=1",
    "google_place_id": "EjpBbSBTY2jDpGZlcnNlZSwgMTM0MDcgQmVybGluLUJlemlyayBSZWluaWNrZW5kb3JmLCBHZXJtYW55Ii4qLAoUChIJKWr4h8xTqEcRh_tOTvFNEXASFAoSCU-pU0C4U6hHEfDoPZVJICEc",
    "google_rating": null,
    "google_maps_url": "https://maps.google.com/?q=Am+Sch%C3%A4fersee,+13407+Berlin-Bezirk+Reinickendorf,+Deutschland&ftid=0x47a853cc87f86a29:0x70114df14e4efb87&g_mp=Cidnb29nbGUubWFwcy5wbGFjZXMudjEuUGxhY2VzLlNlYXJjaFRleHQQAhgEIAA"
  },
  {
    "name": "Königshorster Str. 11-13",
    "street": "",
    "postcode": "13439",
    "place": "Berlin (Märkisches Viertel)",
    "lat": 52.5964898,
    "lng": 13.3509406,
    "source_priority": "atlas",
    "source_url": "https://www.minigolfsport.de/minigolfatlas.php?plz=1",
    "google_place_id": "ChIJvzQNnnNTqEcR2_11OrScV3Y",
    "google_rating": null,
    "google_maps_url": "https://maps.google.com/?cid=8527456717338181083&g_mp=Cidnb29nbGUubWFwcy5wbGFjZXMudjEuUGxhY2VzLlNlYXJjaFRleHQQAhgEIAA"
  },
  {
    "name": "Seniorenfreizeitstätte",
    "street": "",
    "postcode": "13507",
    "place": "Berlin -Tegel",
    "lat": 52.5935654,
    "lng": 13.2761092,
    "source_priority": "atlas",
    "source_url": "https://www.minigolfsport.de/minigolfatlas.php?plz=1",
    "google_place_id": "ChIJX8APVVpUqEcRSrVItrSDWu4",
    "google_rating": 4.1,
    "google_maps_url": "https://maps.google.com/?cid=17175184941106378058&g_mp=Cidnb29nbGUubWFwcy5wbGFjZXMudjEuUGxhY2VzLlNlYXJjaFRleHQQAhgEIAA"
  },
  {
    "name": "Stadion Borsigpark",
    "street": "",
    "postcode": "13507",
    "place": "Berlin -Tegel",
    "lat": 52.5848948,
    "lng": 13.2892663,
    "source_priority": "atlas",
    "source_url": "https://www.minigolfsport.de/minigolfatlas.php?plz=1",
    "google_place_id": "ChIJL-zkP2lUqEcRFlcJeKSBvvk",
    "google_rating": 4.3,
    "google_maps_url": "https://maps.google.com/?cid=17995963704407578390&g_mp=Cidnb29nbGUubWFwcy5wbGFjZXMudjEuUGxhY2VzLlNlYXJjaFRleHQQAhgEIAA"
  },
  {
    "name": "Minigolf und Bootsvermietung Mühl",
    "street": "",
    "postcode": "13507",
    "place": "Berlin -Tegel",
    "lat": 52.5892234,
    "lng": 13.2716974,
    "source_priority": "atlas",
    "source_url": "https://www.minigolfsport.de/minigolfatlas.php?plz=1",
    "google_place_id": "ChIJ_W45FUVUqEcRdxLRDcZUkck",
    "google_rating": 3.6,
    "google_maps_url": "https://maps.google.com/?cid=14524483482858623607&g_mp=Cidnb29nbGUubWFwcy5wbGFjZXMudjEuUGxhY2VzLlNlYXJjaFRleHQQAhgEIAA"
  },
  {
    "name": "Jump House Berlin",
    "street": "",
    "postcode": "13509",
    "place": "Berlin-Reinickendorf",
    "lat": 52.5831854,
    "lng": 13.3118985,
    "source_priority": "atlas",
    "source_url": "https://www.minigolfsport.de/minigolfatlas.php?plz=1",
    "google_place_id": "ChIJrzNtR3ZUqEcRWruq7_LErDo",
    "google_rating": 4.2,
    "google_maps_url": "https://maps.google.com/?cid=4227970697876126554&g_mp=Cidnb29nbGUubWFwcy5wbGFjZXMudjEuUGxhY2VzLlNlYXJjaFRleHQQAhgEIAA"
  },
  {
    "name": "Magistratsweg 8A",
    "street": "",
    "postcode": "13593",
    "place": "Berlin",
    "lat": 52.5207779,
    "lng": 13.1631885,
    "source_priority": "atlas",
    "source_url": "https://www.minigolfsport.de/minigolfatlas.php?plz=1",
    "google_place_id": "ChIJ1XP_fNZXqEcRATxuMscQTjQ",
    "google_rating": null,
    "google_maps_url": "https://maps.google.com/?cid=3768968385886305281&g_mp=Cidnb29nbGUubWFwcy5wbGFjZXMudjEuUGxhY2VzLlNlYXJjaFRleHQQAhgEIAA"
  },
  {
    "name": "Weverstraße 42",
    "street": "",
    "postcode": "13595",
    "place": "Berlin",
    "lat": 52.5194833,
    "lng": 13.200623,
    "source_priority": "atlas",
    "source_url": "https://www.minigolfsport.de/minigolfatlas.php?plz=1",
    "google_place_id": "ChIJA740w7VXqEcRRrwd56VF_88",
    "google_rating": null,
    "google_maps_url": "https://maps.google.com/?cid=14987774663761706054&g_mp=Cidnb29nbGUubWFwcy5wbGFjZXMudjEuUGxhY2VzLlNlYXJjaFRleHQQAhgEIAA"
  },
  {
    "name": "Georg-Hermann-Allee",
    "street": "",
    "postcode": "14469",
    "place": "Potsdam",
    "lat": 52.4124489,
    "lng": 13.0489257,
    "source_priority": "atlas",
    "source_url": "https://www.minigolfsport.de/minigolfatlas.php?plz=1",
    "google_place_id": "ChIJfw6cnn32qEcR0Y7qV6pqeA4",
    "google_rating": null,
    "google_maps_url": "https://maps.google.com/?cid=1042700593588244177&g_mp=Cidnb29nbGUubWFwcy5wbGFjZXMudjEuUGxhY2VzLlNlYXJjaFRleHQQAhgEIAA"
  },
  {
    "name": "Pension Tivoli",
    "street": "",
    "postcode": "14712",
    "place": "Rathenow",
    "lat": 52.6088403,
    "lng": 12.3563862,
    "source_priority": "atlas",
    "source_url": "https://www.minigolfsport.de/minigolfatlas.php?plz=1",
    "google_place_id": "ChIJQ03zvYTRqEcRWCudYbWfL7s",
    "google_rating": 4.2,
    "google_maps_url": "https://maps.google.com/?cid=13488175010373512024&g_mp=Cidnb29nbGUubWFwcy5wbGFjZXMudjEuUGxhY2VzLlNlYXJjaFRleHQQAhgEIAA"
  },
  {
    "name": "Margaretenhof 1",
    "street": "",
    "postcode": "14774",
    "place": "Brandenburg (an der Havel)",
    "lat": 52.4057424,
    "lng": 12.4262425,
    "source_priority": "atlas",
    "source_url": "https://www.minigolfsport.de/minigolfatlas.php?plz=1",
    "google_place_id": "ChIJObPNpp7HqEcRJgZ1m5PGi-Q",
    "google_rating": null,
    "google_maps_url": "https://maps.google.com/?cid=16468474799680980518&g_mp=Cidnb29nbGUubWFwcy5wbGFjZXMudjEuUGxhY2VzLlNlYXJjaFRleHQQAhgEIAA"
  },
  {
    "name": "August- Bebel- Str. 54",
    "street": "",
    "postcode": "15234",
    "place": "Frankfurt (Oder)",
    "lat": 52.3465894,
    "lng": 14.5021516,
    "source_priority": "atlas",
    "source_url": "https://www.minigolfsport.de/minigolfatlas.php?plz=1",
    "google_place_id": "ChIJKdaCrkqYB0cRxdvGEtmiGfE",
    "google_rating": null,
    "google_maps_url": "https://maps.google.com/?cid=17373096090765024197&g_mp=Cidnb29nbGUubWFwcy5wbGFjZXMudjEuUGxhY2VzLlNlYXJjaFRleHQQAhgEIAA"
  },
  {
    "name": "Schneeberger Weg 1",
    "street": "",
    "postcode": "15299",
    "place": "Mixdorf",
    "lat": 52.194662,
    "lng": 14.4021084,
    "source_priority": "atlas",
    "source_url": "https://www.minigolfsport.de/minigolfatlas.php?plz=1",
    "google_place_id": "ChIJozO3Ye6UB0cRkpvJ-wvY_X0",
    "google_rating": null,
    "google_maps_url": "https://maps.google.com/?cid=9078649969829321618&g_mp=Cidnb29nbGUubWFwcy5wbGFjZXMudjEuUGxhY2VzLlNlYXJjaFRleHQQAhgEIAA"
  },
  {
    "name": "Am Backofensteig",
    "street": "",
    "postcode": "15320",
    "place": "Neutrebbin",
    "lat": 52.6620562,
    "lng": 14.2274364,
    "source_priority": "atlas",
    "source_url": "https://www.minigolfsport.de/minigolfatlas.php?plz=1",
    "google_place_id": "ChIJ9bXhvCrWqUcRCfNwbJtVTsI",
    "google_rating": null,
    "google_maps_url": "https://maps.google.com/?cid=14001222417569084169&g_mp=Cidnb29nbGUubWFwcy5wbGFjZXMudjEuUGxhY2VzLlNlYXJjaFRleHQQAhgEIAA"
  },
  {
    "name": "Minigolf+Bistro",
    "street": "",
    "postcode": "15377",
    "place": "Buckow",
    "lat": 52.5616551,
    "lng": 14.0713183,
    "source_priority": "atlas",
    "source_url": "https://www.minigolfsport.de/minigolfatlas.php?plz=1",
    "google_place_id": "ChIJWeVjl7DUqUcRkEgsHxA_c3w",
    "google_rating": 4.4,
    "google_maps_url": "https://maps.google.com/?cid=8967580621499811984&g_mp=Cidnb29nbGUubWFwcy5wbGFjZXMudjEuUGxhY2VzLlNlYXJjaFRleHQQAhgEIAA"
  },
  {
    "name": "Pneumant-Sporthalle",
    "street": "",
    "postcode": "15517",
    "place": "Fürstenwalde",
    "lat": 52.3405845,
    "lng": 14.0830672,
    "source_priority": "atlas",
    "source_url": "https://www.minigolfsport.de/minigolfatlas.php?plz=1",
    "google_place_id": "ChIJu14vLzGIB0cRkKceqjpvbmU",
    "google_rating": 4.5,
    "google_maps_url": "https://maps.google.com/?cid=7308901543021815696&g_mp=Cidnb29nbGUubWFwcy5wbGFjZXMudjEuUGxhY2VzLlNlYXJjaFRleHQQAhgEIAA"
  },
  {
    "name": "Minigolf",
    "street": "",
    "postcode": "15526",
    "place": "Bad Saarow",
    "lat": 52.2794602,
    "lng": 14.057237,
    "source_priority": "atlas",
    "source_url": "https://www.minigolfsport.de/minigolfatlas.php?plz=1",
    "google_place_id": "ChIJ-1JhY6-KB0cRWPiFgyshUkE",
    "google_rating": 4.4,
    "google_maps_url": "https://maps.google.com/?cid=4706861031329495128&g_mp=Cidnb29nbGUubWFwcy5wbGFjZXMudjEuUGxhY2VzLlNlYXJjaFRleHQQAhgEIAA"
  },
  {
    "name": "Hochlandstraße 11A",
    "street": "",
    "postcode": "15569",
    "place": "Woltersdorf",
    "lat": 52.4578257,
    "lng": 13.7441233,
    "source_priority": "atlas",
    "source_url": "https://www.minigolfsport.de/minigolfatlas.php?plz=1",
    "google_place_id": "ChIJX8c4Xyo3qEcR4rfSFs4_GeQ",
    "google_rating": null,
    "google_maps_url": "https://maps.google.com/?cid=16436238469444057058&g_mp=Cidnb29nbGUubWFwcy5wbGFjZXMudjEuUGxhY2VzLlNlYXJjaFRleHQQAhgEIAA"
  },
  {
    "name": "Brückenstraße",
    "street": "",
    "postcode": "15711",
    "place": "Königs Wusterhausen",
    "lat": 52.2986103,
    "lng": 13.6290263,
    "source_priority": "atlas",
    "source_url": "https://www.minigolfsport.de/minigolfatlas.php?plz=1",
    "google_place_id": "ChIJUQk8KvQ-qEcRwzbEJmptNr4",
    "google_rating": null,
    "google_maps_url": "https://maps.google.com/?cid=13706262818633037507&g_mp=Cidnb29nbGUubWFwcy5wbGFjZXMudjEuUGxhY2VzLlNlYXJjaFRleHQQAhgEIAA"
  },
  {
    "name": "Querweg",
    "street": "",
    "postcode": "15831",
    "place": "Großziethen",
    "lat": 52.4042347,
    "lng": 13.4421981,
    "source_priority": "atlas",
    "source_url": "https://www.minigolfsport.de/minigolfatlas.php?plz=1",
    "google_place_id": "ChIJ_XfepTVEqEcRY4KQZnknlGU",
    "google_rating": null,
    "google_maps_url": "https://maps.google.com/?cid=7319518696749171299&g_mp=Cidnb29nbGUubWFwcy5wbGFjZXMudjEuUGxhY2VzLlNlYXJjaFRleHQQAhgEIAA"
  },
  {
    "name": "Erlebnisbahnhof Mellensee",
    "street": "",
    "postcode": "15838",
    "place": "Am Mellensee",
    "lat": 52.1852075,
    "lng": 13.404426,
    "source_priority": "atlas",
    "source_url": "https://www.minigolfsport.de/minigolfatlas.php?plz=1",
    "google_place_id": "ChIJDfQ3HG5sqEcRKFcYlYKc35M",
    "google_rating": 4.5,
    "google_maps_url": "https://maps.google.com/?cid=10655407328042964776&g_mp=Cidnb29nbGUubWFwcy5wbGFjZXMudjEuUGxhY2VzLlNlYXJjaFRleHQQAhgEIAA"
  },
  {
    "name": "Hauptstraße",
    "street": "",
    "postcode": "15864",
    "place": "Wendisch Rietz",
    "lat": 52.24429259999999,
    "lng": 14.0670158,
    "source_priority": "atlas",
    "source_url": "https://www.minigolfsport.de/minigolfatlas.php?plz=1",
    "google_place_id": "ChIJtdXX96yKB0cRs6jtm8hR6u8",
    "google_rating": null,
    "google_maps_url": "https://maps.google.com/?cid=17287720041666422963&g_mp=Cidnb29nbGUubWFwcy5wbGFjZXMudjEuUGxhY2VzLlNlYXJjaFRleHQQAhgEIAA"
  },
  {
    "name": "Tropical-Islands-Allee 1",
    "street": "",
    "postcode": "15910",
    "place": "Krausnick",
    "lat": 52.0295884,
    "lng": 13.7392241,
    "source_priority": "atlas",
    "source_url": "https://www.minigolfsport.de/minigolfatlas.php?plz=1",
    "google_place_id": "ChIJp7xThpEEqEcR56n61L4i7SI",
    "google_rating": null,
    "google_maps_url": "https://maps.google.com/?cid=2516705969782303207&g_mp=Cidnb29nbGUubWFwcy5wbGFjZXMudjEuUGxhY2VzLlNlYXJjaFRleHQQAhgEIAA"
  },
  {
    "name": "Brunnenpl. 11",
    "street": "",
    "postcode": "15913",
    "place": "Neu Zauche",
    "lat": 51.9284613,
    "lng": 14.0900568,
    "source_priority": "atlas",
    "source_url": "https://www.minigolfsport.de/minigolfatlas.php?plz=1",
    "google_place_id": "ChIJ3dRys7P8B0cRUciNdh3LBuY",
    "google_rating": null,
    "google_maps_url": "https://maps.google.com/?cid=16575158805987182673&g_mp=Cidnb29nbGUubWFwcy5wbGFjZXMudjEuUGxhY2VzLlNlYXJjaFRleHQQAhgEIAA"
  },
  {
    "name": "Hotel Haus Chorin",
    "street": "",
    "postcode": "16230",
    "place": "Chorin",
    "lat": 52.8980601,
    "lng": 13.8833552,
    "source_priority": "atlas",
    "source_url": "https://www.minigolfsport.de/minigolfatlas.php?plz=1",
    "google_place_id": "ChIJLcfTJBPAqUcRDiABv7WTowg",
    "google_rating": 3.9,
    "google_maps_url": "https://maps.google.com/?cid=622503582310146062&g_mp=Cidnb29nbGUubWFwcy5wbGFjZXMudjEuUGxhY2VzLlNlYXJjaFRleHQQAhgEIAA"
  },
  {
    "name": "Gartenweg 10",
    "street": "",
    "postcode": "16244",
    "place": "Schorfheide",
    "lat": 52.8483253,
    "lng": 13.6806527,
    "source_priority": "atlas",
    "source_url": "https://www.minigolfsport.de/minigolfatlas.php?plz=1",
    "google_place_id": "ChIJHY9GTuW7qUcRwaGhCGwxSe4",
    "google_rating": null,
    "google_maps_url": "https://maps.google.com/?cid=17170309394397766081&g_mp=Cidnb29nbGUubWFwcy5wbGFjZXMudjEuUGxhY2VzLlNlYXJjaFRleHQQAhgEIAA"
  },
  {
    "name": "Feriendorf Grimnitzsee",
    "street": "",
    "postcode": "16247",
    "place": "Joachimsthal",
    "lat": 52.9721494,
    "lng": 13.7614444,
    "source_priority": "atlas",
    "source_url": "https://www.minigolfsport.de/minigolfatlas.php?plz=1",
    "google_place_id": "ChIJPyBOuNeVqUcREFL8xLzstIk",
    "google_rating": 4.6,
    "google_maps_url": "https://maps.google.com/?cid=9922816174506922512&g_mp=Cidnb29nbGUubWFwcy5wbGFjZXMudjEuUGxhY2VzLlNlYXJjaFRleHQQAhgEIAA"
  },
  {
    "name": "Haus Berlin",
    "street": "",
    "postcode": "16321",
    "place": "Bernau (bei Berlin)",
    "lat": 52.7343011,
    "lng": 13.490983,
    "source_priority": "atlas",
    "source_url": "https://www.minigolfsport.de/minigolfatlas.php?plz=1",
    "google_place_id": "ChIJPV_iCDyuqUcRYMpGK8Yd24I",
    "google_rating": 3.9,
    "google_maps_url": "https://maps.google.com/?cid=9429162981797055072&g_mp=Cidnb29nbGUubWFwcy5wbGFjZXMudjEuUGxhY2VzLlNlYXJjaFRleHQQAhgEIAA"
  },
  {
    "name": "Golfclub Prenden",
    "street": "",
    "postcode": "16348",
    "place": "Prenden",
    "lat": 52.7849704,
    "lng": 13.5676043,
    "source_priority": "atlas",
    "source_url": "https://www.minigolfsport.de/minigolfatlas.php?plz=1",
    "google_place_id": "ChIJXUtDpAqwqUcRuwJGEEy-VQQ",
    "google_rating": 4.7,
    "google_maps_url": "https://maps.google.com/?cid=312364983071933115&g_mp=Cidnb29nbGUubWFwcy5wbGFjZXMudjEuUGxhY2VzLlNlYXJjaFRleHQQAhgEIAA"
  },
  {
    "name": "Bischofswerder Weg 12",
    "street": "",
    "postcode": "16559",
    "place": "Liebenwalde",
    "lat": 52.8934268,
    "lng": 13.3789184,
    "source_priority": "atlas",
    "source_url": "https://www.minigolfsport.de/minigolfatlas.php?plz=1",
    "google_place_id": "ChIJfxbCmTSnqUcRfk-fYczmHFk",
    "google_rating": null,
    "google_maps_url": "https://maps.google.com/?cid=6421260934209032062&g_mp=Cidnb29nbGUubWFwcy5wbGFjZXMudjEuUGxhY2VzLlNlYXJjaFRleHQQAhgEIAA"
  },
  {
    "name": "Lindenstraße",
    "street": "",
    "postcode": "17033",
    "place": "Neubrandenburg",
    "lat": 53.5367703,
    "lng": 13.2589225,
    "source_priority": "atlas",
    "source_url": "https://www.minigolfsport.de/minigolfatlas.php?plz=1",
    "google_place_id": "ChIJs4kzCkbDq0cRPJfZ0Y0qMlg",
    "google_rating": null,
    "google_maps_url": "https://maps.google.com/?cid=6355188812772644668&g_mp=Cidnb29nbGUubWFwcy5wbGFjZXMudjEuUGxhY2VzLlNlYXJjaFRleHQQAhgEIAA"
  },
  {
    "name": "Van der Valk Naturresort Drewitz",
    "street": "",
    "postcode": "17214",
    "place": "Drewitz",
    "lat": 53.5587429,
    "lng": 12.3511745,
    "source_priority": "atlas",
    "source_url": "https://www.minigolfsport.de/minigolfatlas.php?plz=1",
    "google_place_id": "ChIJOzRuPwwbrEcRLkZGk8eKwKU",
    "google_rating": 4.2,
    "google_maps_url": "https://maps.google.com/?cid=11943698801560536622&g_mp=Cidnb29nbGUubWFwcy5wbGFjZXMudjEuUGxhY2VzLlNlYXJjaFRleHQQAhgEIAA"
  },
  {
    "name": "Uckerpromenade 84",
    "street": "",
    "postcode": "17291",
    "place": "Prenzlau",
    "lat": 53.2927302,
    "lng": 13.8702145,
    "source_priority": "atlas",
    "source_url": "https://www.minigolfsport.de/minigolfatlas.php?plz=1",
    "google_place_id": "ChIJebx90nMnqkcRVZLVdBxf_Es",
    "google_rating": null,
    "google_maps_url": "https://maps.google.com/?cid=5475355822799557205&g_mp=Cidnb29nbGUubWFwcy5wbGFjZXMudjEuUGxhY2VzLlNlYXJjaFRleHQQAhgEIAA"
  },
  {
    "name": "Stettiner Str. 46B",
    "street": "",
    "postcode": "17367",
    "place": "Eggesin",
    "lat": 53.6767862,
    "lng": 14.0957385,
    "source_priority": "atlas",
    "source_url": "https://www.minigolfsport.de/minigolfatlas.php?plz=1",
    "google_place_id": "ChIJeeZp8bxGqkcRW3o-Bq0Heq0",
    "google_rating": null,
    "google_maps_url": "https://maps.google.com/?cid=12500312155435727451&g_mp=Cidnb29nbGUubWFwcy5wbGFjZXMudjEuUGxhY2VzLlNlYXJjaFRleHQQAhgEIAA"
  },
  {
    "name": "Camping am Minigolf",
    "street": "",
    "postcode": "17424",
    "place": "Heringsdorf",
    "lat": 53.9585303,
    "lng": 14.1662179,
    "source_priority": "atlas",
    "source_url": "https://www.minigolfsport.de/minigolfatlas.php?plz=1",
    "google_place_id": "ChIJQb54LuOBrUcRVc61dlfaIGc",
    "google_rating": 4.5,
    "google_maps_url": "https://maps.google.com/?cid=7431179454349954645&g_mp=Cidnb29nbGUubWFwcy5wbGFjZXMudjEuUGxhY2VzLlNlYXJjaFRleHQQAhgEIAA"
  },
  {
    "name": "Indoor Minigolf Pudagla",
    "street": "",
    "postcode": "17429",
    "place": "Pudagla",
    "lat": 53.9553523,
    "lng": 14.0469146,
    "source_priority": "atlas",
    "source_url": "https://www.minigolfsport.de/minigolfatlas.php?plz=1",
    "google_place_id": "ChIJD0TAxiNWqkcRnLujQTP8uWY",
    "google_rating": 4.8,
    "google_maps_url": "https://maps.google.com/?cid=7402224759634901916&g_mp=Cidnb29nbGUubWFwcy5wbGFjZXMudjEuUGxhY2VzLlNlYXJjaFRleHQQAhgEIAA"
  },
  {
    "name": "Waldcamp Freest",
    "street": "",
    "postcode": "17440",
    "place": "Freest",
    "lat": 54.1398443,
    "lng": 13.7190664,
    "source_priority": "atlas",
    "source_url": "https://www.minigolfsport.de/minigolfatlas.php?plz=1",
    "google_place_id": "ChIJW5TwsXsFq0cRY8Ga4ZFuraM",
    "google_rating": 4.6,
    "google_maps_url": "https://maps.google.com/?cid=11794204571987525987&g_mp=Cidnb29nbGUubWFwcy5wbGFjZXMudjEuUGxhY2VzLlNlYXJjaFRleHQQAhgEIAA"
  },
  {
    "name": "Strandpromenade",
    "street": "",
    "postcode": "17449",
    "place": "Karlshagen",
    "lat": 54.1210749,
    "lng": 13.8420699,
    "source_priority": "atlas",
    "source_url": "https://www.minigolfsport.de/minigolfatlas.php?plz=1",
    "google_place_id": "EipTdHJhbmRwcm9tZW5hZGUsIDE3NDQ5IEthcmxzaGFnZW4sIEdlcm1hbnkiLiosChQKEgnHDZoyfwOrRxHQ05q1XHuywhIUChIJOe1aOIEDq0cR98bhWSS_c94",
    "google_rating": null,
    "google_maps_url": "https://maps.google.com/?q=Strandpromenade,+17449+Karlshagen,+Deutschland&ftid=0x47ab037f329a0dc7:0xc2b27b5cb59ad3d0&g_mp=Cidnb29nbGUubWFwcy5wbGFjZXMudjEuUGxhY2VzLlNlYXJjaFRleHQQAhgEIAA"
  },
  {
    "name": "Kinderland",
    "street": "",
    "postcode": "17449",
    "place": "Trassenheide",
    "lat": 54.0797343,
    "lng": 13.8672265,
    "source_priority": "atlas",
    "source_url": "https://www.minigolfsport.de/minigolfatlas.php?plz=1",
    "google_place_id": "ChIJAT2bctEDq0cRnYnpPDq_WOM",
    "google_rating": 3.5,
    "google_maps_url": "https://maps.google.com/?cid=16382053901411125661&g_mp=Cidnb29nbGUubWFwcy5wbGFjZXMudjEuUGxhY2VzLlNlYXJjaFRleHQQAhgEIAA"
  },
  {
    "name": "Bernsteintherme",
    "street": "",
    "postcode": "17454",
    "place": "Ostseebad Zinnowitz",
    "lat": 54.083549,
    "lng": 13.9068355,
    "source_priority": "atlas",
    "source_url": "https://www.minigolfsport.de/minigolfatlas.php?plz=1",
    "google_place_id": "ChIJ99SXJBYCq0cRwudzRmS4gXU",
    "google_rating": 2.7,
    "google_maps_url": "https://maps.google.com/?cid=8467251515251484610&g_mp=Cidnb29nbGUubWFwcy5wbGFjZXMudjEuUGxhY2VzLlNlYXJjaFRleHQQAhgEIAA"
  },
  {
    "name": "Minigolfanlage Koserow",
    "street": "",
    "postcode": "17459",
    "place": "Koserow",
    "lat": 54.0497349,
    "lng": 14.0008946,
    "source_priority": "atlas",
    "source_url": "https://www.minigolfsport.de/minigolfatlas.php?plz=1",
    "google_place_id": "ChIJOzfLr4b-qkcRES04XPYIVrs",
    "google_rating": 4.6,
    "google_maps_url": "https://maps.google.com/?cid=13498986787291802897&g_mp=Cidnb29nbGUubWFwcy5wbGFjZXMudjEuUGxhY2VzLlNlYXJjaFRleHQQAhgEIAA"
  },
  {
    "name": "Industriestraße 10",
    "street": "",
    "postcode": "18069",
    "place": "Rostock",
    "lat": 54.1305021,
    "lng": 12.0814722,
    "source_priority": "atlas",
    "source_url": "https://www.minigolfsport.de/minigolfatlas.php?plz=1",
    "google_place_id": "ChIJP2v-yflWrEcRw3o_8J1vOuY",
    "google_rating": null,
    "google_maps_url": "https://maps.google.com/?cid=16589694901503883971&g_mp=Cidnb29nbGUubWFwcy5wbGFjZXMudjEuUGxhY2VzLlNlYXJjaFRleHQQAhgEIAA"
  },
  {
    "name": "ehem. Freibeuter",
    "street": "",
    "postcode": "18109",
    "place": "Rostock",
    "lat": 54.1438615,
    "lng": 12.0807939,
    "source_priority": "atlas",
    "source_url": "https://www.minigolfsport.de/minigolfatlas.php?plz=1",
    "google_place_id": "ChIJ9fuNaltWrEcRA9nQ9oojMQ8",
    "google_rating": 3.9,
    "google_maps_url": "https://maps.google.com/?cid=1094695264181082371&g_mp=Cidnb29nbGUubWFwcy5wbGFjZXMudjEuUGxhY2VzLlNlYXJjaFRleHQQAhgEIAA"
  },
  {
    "name": "Stolteraer Weg 47",
    "street": "",
    "postcode": "18119",
    "place": "Rostock-Warnemünde",
    "lat": 54.175147,
    "lng": 12.0083803,
    "source_priority": "atlas",
    "source_url": "https://www.minigolfsport.de/minigolfatlas.php?plz=1",
    "google_place_id": "EilTdG9sdGVyYWVyIFdlZyA0NywgMTgxMTkgUm9zdG9jaywgR2VybWFueSIwEi4KFAoSCRdmu9HtVaxHEYdEM8i0JDIhEC8qFAoSCbV9Gs3vVaxHEfnIBRssj5wF",
    "google_rating": null,
    "google_maps_url": "https://maps.google.com/?q=Stolteraer+Weg+47,+18119+Rostock,+Deutschland&ftid=0x47ac55edd1bb6617:0x2de972771be87a97&g_mp=Cidnb29nbGUubWFwcy5wbGFjZXMudjEuUGxhY2VzLlNlYXJjaFRleHQQAhgEIAA"
  },
  {
    "name": "Hermannstraße 19B",
    "street": "",
    "postcode": "18225",
    "place": "Kühlungsborn",
    "lat": 54.1500226,
    "lng": 11.7357181,
    "source_priority": "atlas",
    "source_url": "https://www.minigolfsport.de/minigolfatlas.php?plz=1",
    "google_place_id": "ChIJcTiqCBmprUcRI_y4njAoFMI",
    "google_rating": null,
    "google_maps_url": "https://maps.google.com/?cid=13984846932178697251&g_mp=Cidnb29nbGUubWFwcy5wbGFjZXMudjEuUGxhY2VzLlNlYXJjaFRleHQQAhgEIAA"
  },
  {
    "name": "Restaurant im Gutshof Bastorf",
    "street": "",
    "postcode": "18230",
    "place": "Bastorf",
    "lat": 54.1253689,
    "lng": 11.6997582,
    "source_priority": "atlas",
    "source_url": "https://www.minigolfsport.de/minigolfatlas.php?plz=1",
    "google_place_id": "ChIJod1xbC2vrUcR9rEblEsy55s",
    "google_rating": 4.4,
    "google_maps_url": "https://maps.google.com/?cid=11234003095687770614&g_mp=Cidnb29nbGUubWFwcy5wbGFjZXMudjEuUGxhY2VzLlNlYXJjaFRleHQQAhgEIAA"
  },
  {
    "name": "Parkweg 7",
    "street": "",
    "postcode": "18230",
    "place": "Rerik",
    "lat": 54.106781,
    "lng": 11.6114438,
    "source_priority": "atlas",
    "source_url": "https://www.minigolfsport.de/minigolfatlas.php?plz=1",
    "google_place_id": "ChIJz2Y1MJalrUcRgtVUDuYyHic",
    "google_rating": null,
    "google_maps_url": "https://maps.google.com/?cid=2818746380444816770&g_mp=Cidnb29nbGUubWFwcy5wbGFjZXMudjEuUGxhY2VzLlNlYXJjaFRleHQQAhgEIAA"
  },
  {
    "name": "Ahornweg 2",
    "street": "",
    "postcode": "18230",
    "place": "Bastorf",
    "lat": 54.1260537,
    "lng": 11.6917866,
    "source_priority": "atlas",
    "source_url": "https://www.minigolfsport.de/minigolfatlas.php?plz=1",
    "google_place_id": "ChIJgWBRpzOvrUcRl-kLt63S3tQ",
    "google_rating": null,
    "google_maps_url": "https://maps.google.com/?cid=15338929024412674455&g_mp=Cidnb29nbGUubWFwcy5wbGFjZXMudjEuUGxhY2VzLlNlYXJjaFRleHQQAhgEIAA"
  },
  {
    "name": "Nebelring",
    "street": "",
    "postcode": "18246",
    "place": "Bützow",
    "lat": 53.8256006,
    "lng": 11.9993672,
    "source_priority": "atlas",
    "source_url": "https://www.minigolfsport.de/minigolfatlas.php?plz=1",
    "google_place_id": "ChIJu3TqoOY3rEcRXf0Y8sZ8ZL8",
    "google_rating": null,
    "google_maps_url": "https://maps.google.com/?cid=13791285152822394205&g_mp=Cidnb29nbGUubWFwcy5wbGFjZXMudjEuUGxhY2VzLlNlYXJjaFRleHQQAhgEIAA"
  },
  {
    "name": "Haus hinter den Dünen",
    "street": "",
    "postcode": "18375",
    "place": "Prerow",
    "lat": 54.4528905,
    "lng": 12.5561571,
    "source_priority": "atlas",
    "source_url": "https://www.minigolfsport.de/minigolfatlas.php?plz=1",
    "google_place_id": "ChIJ-37hU87qrEcRqXl76XqdttA",
    "google_rating": 4.1,
    "google_maps_url": "https://maps.google.com/?cid=15039381156879104425&g_mp=Cidnb29nbGUubWFwcy5wbGFjZXMudjEuUGxhY2VzLlNlYXJjaFRleHQQAhgEIAA"
  },
  {
    "name": "Krabbenort 1",
    "street": "",
    "postcode": "18375",
    "place": "Prerow",
    "lat": 54.4460543,
    "lng": 12.5923655,
    "source_priority": "atlas",
    "source_url": "https://www.minigolfsport.de/minigolfatlas.php?plz=1",
    "google_place_id": "ChIJlSsKwyKVrEcRQNMR553D29g",
    "google_rating": null,
    "google_maps_url": "https://maps.google.com/?cid=15626298415046054720&g_mp=Cidnb29nbGUubWFwcy5wbGFjZXMudjEuUGxhY2VzLlNlYXJjaFRleHQQAhgEIAA"
  },
  {
    "name": "Kletterwald Darß",
    "street": "",
    "postcode": "18375",
    "place": "Born",
    "lat": 54.3849375,
    "lng": 12.5212127,
    "source_priority": "atlas",
    "source_url": "https://www.minigolfsport.de/minigolfatlas.php?plz=1",
    "google_place_id": "ChIJK8v59rDsrEcRxb8cdi24Rf0",
    "google_rating": 4.6,
    "google_maps_url": "https://maps.google.com/?cid=18250195570383437765&g_mp=Cidnb29nbGUubWFwcy5wbGFjZXMudjEuUGxhY2VzLlNlYXJjaFRleHQQAhgEIAA"
  },
  {
    "name": "Neddesitz 4",
    "street": "",
    "postcode": "18551",
    "place": "Sagard",
    "lat": 54.5469796,
    "lng": 13.5695869,
    "source_priority": "atlas",
    "source_url": "https://www.minigolfsport.de/minigolfatlas.php?plz=1",
    "google_place_id": "ChIJq7emsCZGq0cRfceJ42WR7bw",
    "google_rating": null,
    "google_maps_url": "https://maps.google.com/?cid=13613697115406059389&g_mp=Cidnb29nbGUubWFwcy5wbGFjZXMudjEuUGxhY2VzLlNlYXJjaFRleHQQAhgEIAA"
  },
  {
    "name": "Feriendorf Rugana/Reetland am Meer",
    "street": "",
    "postcode": "18556",
    "place": "Dranske",
    "lat": 54.662672,
    "lng": 13.2808717,
    "source_priority": "atlas",
    "source_url": "https://www.minigolfsport.de/minigolfatlas.php?plz=1",
    "google_place_id": "ChIJndBxUpdWq0cR_GzZOYPQP_s",
    "google_rating": 4.3,
    "google_maps_url": "https://maps.google.com/?cid=18104418289082526972&g_mp=Cidnb29nbGUubWFwcy5wbGFjZXMudjEuUGxhY2VzLlNlYXJjaFRleHQQAhgEIAA"
  },
  {
    "name": "SOIBELMANNS Hotel Rügen",
    "street": "",
    "postcode": "18573",
    "place": "Samtens",
    "lat": 54.3632709,
    "lng": 13.3015494,
    "source_priority": "atlas",
    "source_url": "https://www.minigolfsport.de/minigolfatlas.php?plz=1",
    "google_place_id": "ChIJ_UvY6tVnq0cRyn-9XJCPSQQ",
    "google_rating": 3.6,
    "google_maps_url": "https://maps.google.com/?cid=308935899645575114&g_mp=Cidnb29nbGUubWFwcy5wbGFjZXMudjEuUGxhY2VzLlNlYXJjaFRleHQQAhgEIAA"
  },
  {
    "name": "Seepark Putter Minigolf",
    "street": "",
    "postcode": "18586",
    "place": "Sellin",
    "lat": 54.3741031,
    "lng": 13.6975967,
    "source_priority": "atlas",
    "source_url": "https://www.minigolfsport.de/minigolfatlas.php?plz=1",
    "google_place_id": "ChIJKQ5ycgk-q0cRWOulbicV7r8",
    "google_rating": 4.1,
    "google_maps_url": "https://maps.google.com/?cid=13830014764805647192&g_mp=Cidnb29nbGUubWFwcy5wbGFjZXMudjEuUGxhY2VzLlNlYXJjaFRleHQQAhgEIAA"
  },
  {
    "name": "Nordstrand 4",
    "street": "",
    "postcode": "18586",
    "place": "Göhren (Rügen)",
    "lat": 54.3454561,
    "lng": 13.7405171,
    "source_priority": "atlas",
    "source_url": "https://www.minigolfsport.de/minigolfatlas.php?plz=1",
    "google_place_id": "ChIJ5XXG-y4Wq0cRtP3PEzZO1sk",
    "google_rating": null,
    "google_maps_url": "https://maps.google.com/?cid=14543898040807194036&g_mp=Cidnb29nbGUubWFwcy5wbGFjZXMudjEuUGxhY2VzLlNlYXJjaFRleHQQAhgEIAA"
  },
  {
    "name": "An d. Crivitzer Ch 1",
    "street": "",
    "postcode": "19055",
    "place": "Schwerin",
    "lat": 53.6082013,
    "lng": 11.4243961,
    "source_priority": "atlas",
    "source_url": "https://www.minigolfsport.de/minigolfatlas.php?plz=1",
    "google_place_id": "ChIJWY0uzELXrUcRbQpJAoP93zA",
    "google_rating": null,
    "google_maps_url": "https://maps.google.com/?cid=3521812172747901549&g_mp=Cidnb29nbGUubWFwcy5wbGFjZXMudjEuUGxhY2VzLlNlYXJjaFRleHQQAhgEIAA"
  },
  {
    "name": "Am Immensoll 35",
    "street": "",
    "postcode": "19057",
    "place": "Schwerin",
    "lat": 53.6328551,
    "lng": 11.3699067,
    "source_priority": "atlas",
    "source_url": "https://www.minigolfsport.de/minigolfatlas.php?plz=1",
    "google_place_id": "ChIJiSSP3dXbrUcRM25CRP3pE3k",
    "google_rating": null,
    "google_maps_url": "https://maps.google.com/?cid=8724574177127984691&g_mp=Cidnb29nbGUubWFwcy5wbGFjZXMudjEuUGxhY2VzLlNlYXJjaFRleHQQAhgEIAA"
  },
  {
    "name": "Gehrenweg 83",
    "street": "",
    "postcode": "19222",
    "place": "Wittenberge",
    "lat": 53.0029825,
    "lng": 11.7379331,
    "source_priority": "atlas",
    "source_url": "https://www.minigolfsport.de/minigolfatlas.php?plz=1",
    "google_place_id": "ChIJF3Ja23LvrkcR0JYbucMqp3k",
    "google_rating": null,
    "google_maps_url": "https://maps.google.com/?cid=8766022219812542160&g_mp=Cidnb29nbGUubWFwcy5wbGFjZXMudjEuUGxhY2VzLlNlYXJjaFRleHQQAhgEIAA"
  },
  {
    "name": "Hotel an der Therme",
    "street": "",
    "postcode": "19336",
    "place": "Bad Wilsnack",
    "lat": 52.9614544,
    "lng": 11.9489127,
    "source_priority": "atlas",
    "source_url": "https://www.minigolfsport.de/minigolfatlas.php?plz=1",
    "google_place_id": "ChIJAVMjU9XCrkcR9F5yoebmfec",
    "google_rating": 4.4,
    "google_maps_url": "https://maps.google.com/?cid=16680742473075678964&g_mp=Cidnb29nbGUubWFwcy5wbGFjZXMudjEuUGxhY2VzLlNlYXJjaFRleHQQAhgEIAA"
  },
  {
    "name": "Ziegeleiweg 8",
    "street": "",
    "postcode": "19386",
    "place": "Benzin",
    "lat": 53.4495619,
    "lng": 12.0954628,
    "source_priority": "atlas",
    "source_url": "https://www.minigolfsport.de/minigolfatlas.php?plz=1",
    "google_place_id": "ChIJ1ep3tYyfrkcRK-G0Re9hTNw",
    "google_rating": null,
    "google_maps_url": "https://maps.google.com/?cid=15874170466868715819&g_mp=Cidnb29nbGUubWFwcy5wbGFjZXMudjEuUGxhY2VzLlNlYXJjaFRleHQQAhgEIAA"
  },
  {
    "name": "Seestraße 7",
    "street": "",
    "postcode": "19406",
    "place": "Hohen Pritz-Kukuk",
    "lat": 53.6382187,
    "lng": 11.9241398,
    "source_priority": "atlas",
    "source_url": "https://www.minigolfsport.de/minigolfatlas.php?plz=1",
    "google_place_id": "ChIJRTpM8Y0vrEcRaaCea3XbaYU",
    "google_rating": null,
    "google_maps_url": "https://maps.google.com/?cid=9613456176962248809&g_mp=Cidnb29nbGUubWFwcy5wbGFjZXMudjEuUGxhY2VzLlNlYXJjaFRleHQQAhgEIAA"
  },
  {
    "name": "Wohnmobilstellplatz Heiligengeistfeld",
    "street": "",
    "postcode": "20359",
    "place": "Hamburg",
    "lat": 53.5554157,
    "lng": 9.9734715,
    "source_priority": "atlas",
    "source_url": "https://www.minigolfsport.de/minigolfatlas.php?plz=2",
    "google_place_id": "ChIJPTynSQCPsUcR3JUU62WPpgc",
    "google_rating": 4.5,
    "google_maps_url": "https://maps.google.com/?cid=551285672297928156&g_mp=Cidnb29nbGUubWFwcy5wbGFjZXMudjEuUGxhY2VzLlNlYXJjaFRleHQQAhgEIAA"
  },
  {
    "name": "Caspar-Voght-Straße 35c",
    "street": "",
    "postcode": "20535",
    "place": "Hamburg",
    "lat": 53.5584772,
    "lng": 10.0599158,
    "source_priority": "atlas",
    "source_url": "https://www.minigolfsport.de/minigolfatlas.php?plz=2",
    "google_place_id": "ChIJv5OdLqeOsUcRjggAAz_3vXg",
    "google_rating": null,
    "google_maps_url": "https://maps.google.com/?cid=8700381905155000462&g_mp=Cidnb29nbGUubWFwcy5wbGFjZXMudjEuUGxhY2VzLlNlYXJjaFRleHQQAhgEIAA"
  },
  {
    "name": "Schillerufer",
    "street": "",
    "postcode": "21029",
    "place": "Hamburg",
    "lat": 53.4920009,
    "lng": 10.2131173,
    "source_priority": "atlas",
    "source_url": "https://www.minigolfsport.de/minigolfatlas.php?plz=2",
    "google_place_id": "ChIJb3TM-IvysUcRP0KdkXwKckg",
    "google_rating": null,
    "google_maps_url": "https://maps.google.com/?cid=5220246448211051071&g_mp=Cidnb29nbGUubWFwcy5wbGFjZXMudjEuUGxhY2VzLlNlYXJjaFRleHQQAhgEIAA"
  },
  {
    "name": "Leuschnerstraße 100",
    "street": "",
    "postcode": "21031",
    "place": "Hamburg",
    "lat": 53.5049432,
    "lng": 10.2031683,
    "source_priority": "atlas",
    "source_url": "https://www.minigolfsport.de/minigolfatlas.php?plz=2",
    "google_place_id": "EixMZXVzY2huZXJzdHJhw59lIDEwMCwgMjEwMzEgSGFtYnVyZywgR2VybWFueSIwEi4KFAoSCUOwqoDo8rFHES8Of-ggBu1jEGQqFAoSCcmylZPu8rFHEeXnyya0hKYj",
    "google_rating": null,
    "google_maps_url": "https://maps.google.com/?q=Leuschnerstra%C3%9Fe+100,+21031+Hamburg,+Deutschland&ftid=0x47b1f2e880aab043:0x2aecd7f856b7c40e&g_mp=Cidnb29nbGUubWFwcy5wbGFjZXMudjEuUGxhY2VzLlNlYXJjaFRleHQQAhgEIAA"
  },
  {
    "name": "Hasselwerder Straße",
    "street": "",
    "postcode": "21129",
    "place": "Hamburg",
    "lat": 53.5174622,
    "lng": 9.82425,
    "source_priority": "atlas",
    "source_url": "https://www.minigolfsport.de/minigolfatlas.php?plz=2",
    "google_place_id": "ChIJd5P5r6iEsUcR7mNVWUHMwfU",
    "google_rating": null,
    "google_maps_url": "https://maps.google.com/?cid=17708659790841209838&g_mp=Cidnb29nbGUubWFwcy5wbGFjZXMudjEuUGxhY2VzLlNlYXJjaFRleHQQAhgEIAA"
  },
  {
    "name": "Thommy's Mini-Treff Minigolf",
    "street": "",
    "postcode": "21256",
    "place": "Handeloh",
    "lat": 53.2579926,
    "lng": 9.842969,
    "source_priority": "atlas",
    "source_url": "https://www.minigolfsport.de/minigolfatlas.php?plz=2",
    "google_place_id": "ChIJrxjLGrG8sUcR77-q11lckBI",
    "google_rating": 4.4,
    "google_maps_url": "https://maps.google.com/?cid=1337670630269173743&g_mp=Cidnb29nbGUubWFwcy5wbGFjZXMudjEuUGxhY2VzLlNlYXJjaFRleHQQAhgEIAA"
  },
  {
    "name": "Sültenweg 20",
    "street": "",
    "postcode": "21339",
    "place": "Lüneburg",
    "lat": 53.2442843,
    "lng": 10.3949568,
    "source_priority": "atlas",
    "source_url": "https://www.minigolfsport.de/minigolfatlas.php?plz=2",
    "google_place_id": "ChIJu2kpwbXdsUcR9ufpopoUWp4",
    "google_rating": null,
    "google_maps_url": "https://maps.google.com/?cid=11410455260287330294&g_mp=Cidnb29nbGUubWFwcy5wbGFjZXMudjEuUGxhY2VzLlNlYXJjaFRleHQQAhgEIAA"
  },
  {
    "name": "Uelzener Straße",
    "street": "",
    "postcode": "21339",
    "place": "Lüneburg",
    "lat": 53.2420355,
    "lng": 10.4041135,
    "source_priority": "atlas",
    "source_url": "https://www.minigolfsport.de/minigolfatlas.php?plz=2",
    "google_place_id": "ChIJWR86tDrcsUcRWaKt3SfEdns",
    "google_rating": null,
    "google_maps_url": "https://maps.google.com/?cid=8896513789418906201&g_mp=Cidnb29nbGUubWFwcy5wbGFjZXMudjEuUGxhY2VzLlNlYXJjaFRleHQQAhgEIAA"
  },
  {
    "name": "Elbkantinchen",
    "street": "",
    "postcode": "21502",
    "place": "Geesthacht",
    "lat": 53.4019669,
    "lng": 10.4273723,
    "source_priority": "atlas",
    "source_url": "https://www.minigolfsport.de/minigolfatlas.php?plz=2",
    "google_place_id": "ChIJxQoMtlLksUcRsEVfMPdJk1g",
    "google_rating": 4.3,
    "google_maps_url": "https://maps.google.com/?cid=6382526422931424688&g_mp=Cidnb29nbGUubWFwcy5wbGFjZXMudjEuUGxhY2VzLlNlYXJjaFRleHQQAhgEIAA"
  },
  {
    "name": "Werftstraße",
    "street": "",
    "postcode": "21502",
    "place": "Geesthacht",
    "lat": 53.428223,
    "lng": 10.3728679,
    "source_priority": "atlas",
    "source_url": "https://www.minigolfsport.de/minigolfatlas.php?plz=2",
    "google_place_id": "ChIJj4zzTY_vsUcROyqnIRBKmhM",
    "google_rating": null,
    "google_maps_url": "https://maps.google.com/?cid=1412522866278607419&g_mp=Cidnb29nbGUubWFwcy5wbGFjZXMudjEuUGxhY2VzLlNlYXJjaFRleHQQAhgEIAA"
  },
  {
    "name": "Moorweg",
    "street": "",
    "postcode": "21514",
    "place": "Büchen",
    "lat": 53.4890093,
    "lng": 10.6112458,
    "source_priority": "atlas",
    "source_url": "https://www.minigolfsport.de/minigolfatlas.php?plz=2",
    "google_place_id": "ChIJUb81GqL9sUcRAwOH2w8Yt4s",
    "google_rating": null,
    "google_maps_url": "https://maps.google.com/?cid=10067541948396667651&g_mp=Cidnb29nbGUubWFwcy5wbGFjZXMudjEuUGxhY2VzLlNlYXJjaFRleHQQAhgEIAA"
  },
  {
    "name": "Minigolfklause Neu Wulmstorf",
    "street": "",
    "postcode": "21629",
    "place": "Neu Wulmstorf",
    "lat": 53.4600969,
    "lng": 9.8068194,
    "source_priority": "atlas",
    "source_url": "https://www.minigolfsport.de/minigolfatlas.php?plz=2",
    "google_place_id": "ChIJJRBgbJybsUcRj3Wi9X8P9N0",
    "google_rating": 4,
    "google_maps_url": "https://maps.google.com/?cid=15993425218955801999&g_mp=Cidnb29nbGUubWFwcy5wbGFjZXMudjEuUGxhY2VzLlNlYXJjaFRleHQQAhgEIAA"
  },
  {
    "name": "Am Freizeitpark 2",
    "street": "",
    "postcode": "21640",
    "place": "Nottensdorf",
    "lat": 53.487297,
    "lng": 9.6075218,
    "source_priority": "atlas",
    "source_url": "https://www.minigolfsport.de/minigolfatlas.php?plz=2",
    "google_place_id": "ChIJkQsCQQR3sUcR4N0_VTASq5U",
    "google_rating": null,
    "google_maps_url": "https://maps.google.com/?cid=10784733731466763744&g_mp=Cidnb29nbGUubWFwcy5wbGFjZXMudjEuUGxhY2VzLlNlYXJjaFRleHQQAhgEIAA"
  },
  {
    "name": "Osterwechtern",
    "street": "",
    "postcode": "21732",
    "place": "Krummendeich",
    "lat": 53.8310819,
    "lng": 9.2133951,
    "source_priority": "atlas",
    "source_url": "https://www.minigolfsport.de/minigolfatlas.php?plz=2",
    "google_place_id": "ChIJibmXPaXms0cRKjAMFfrhTlA",
    "google_rating": null,
    "google_maps_url": "https://maps.google.com/?cid=5786811035428859946&g_mp=Cidnb29nbGUubWFwcy5wbGFjZXMudjEuUGxhY2VzLlNlYXJjaFRleHQQAhgEIAA"
  },
  {
    "name": "Spiel- und Spaßscheune - Seelandhallen",
    "street": "",
    "postcode": "21762",
    "place": "Otterndorf",
    "lat": 53.8220472,
    "lng": 8.8825671,
    "source_priority": "atlas",
    "source_url": "https://www.minigolfsport.de/minigolfatlas.php?plz=2",
    "google_place_id": "ChIJg8TDghj_s0cRcXO2sYi0nJg",
    "google_rating": 4.1,
    "google_maps_url": "https://maps.google.com/?cid=10996862889321984881&g_mp=Cidnb29nbGUubWFwcy5wbGFjZXMudjEuUGxhY2VzLlNlYXJjaFRleHQQAhgEIAA"
  },
  {
    "name": "Am Yachthafen",
    "street": "",
    "postcode": "21785",
    "place": "Neuhaus (Oste)",
    "lat": 53.8004641,
    "lng": 9.039475,
    "source_priority": "atlas",
    "source_url": "https://www.minigolfsport.de/minigolfatlas.php?plz=2",
    "google_place_id": "ChIJQTKM_cL8s0cRnfTmzKMPvCU",
    "google_rating": null,
    "google_maps_url": "https://maps.google.com/?cid=2719065471216710813&g_mp=Cidnb29nbGUubWFwcy5wbGFjZXMudjEuUGxhY2VzLlNlYXJjaFRleHQQAhgEIAA"
  },
  {
    "name": "Am Olymp",
    "street": "",
    "postcode": "21789",
    "place": "Wingst",
    "lat": 53.7430284,
    "lng": 9.0785297,
    "source_priority": "atlas",
    "source_url": "https://www.minigolfsport.de/minigolfatlas.php?plz=2",
    "google_place_id": "ChIJd8r43p_is0cRfM5PfJs9M_g",
    "google_rating": null,
    "google_maps_url": "https://maps.google.com/?cid=17884706283233201788&g_mp=Cidnb29nbGUubWFwcy5wbGFjZXMudjEuUGxhY2VzLlNlYXJjaFRleHQQAhgEIAA"
  },
  {
    "name": "Verwaltung Hamburger Renn-Club e. V.",
    "street": "",
    "postcode": "22111",
    "place": "Hamburg-Horn",
    "lat": 53.5601346,
    "lng": 10.0830355,
    "source_priority": "atlas",
    "source_url": "https://www.minigolfsport.de/minigolfatlas.php?plz=2",
    "google_place_id": "ChIJZfjORBCMsUcRJXmwCkdMI_s",
    "google_rating": 4.3,
    "google_maps_url": "https://maps.google.com/?cid=18096391595710511397&g_mp=Cidnb29nbGUubWFwcy5wbGFjZXMudjEuUGxhY2VzLlNlYXJjaFRleHQQAhgEIAA"
  },
  {
    "name": "Driftredder",
    "street": "",
    "postcode": "22117",
    "place": "Hamburg",
    "lat": 53.5502737,
    "lng": 10.1402328,
    "source_priority": "atlas",
    "source_url": "https://www.minigolfsport.de/minigolfatlas.php?plz=2",
    "google_place_id": "ChIJR9OiyJOMsUcRKTUaLR7bDig",
    "google_rating": null,
    "google_maps_url": "https://maps.google.com/?cid=2886485333843260713&g_mp=Cidnb29nbGUubWFwcy5wbGFjZXMudjEuUGxhY2VzLlNlYXJjaFRleHQQAhgEIAA"
  },
  {
    "name": "Swinemünder Str. 29",
    "street": "",
    "postcode": "22147",
    "place": "Hamburg",
    "lat": 53.6166422,
    "lng": 10.1454416,
    "source_priority": "atlas",
    "source_url": "https://www.minigolfsport.de/minigolfatlas.php?plz=2",
    "google_place_id": "ChIJ-UB6qviKsUcRqrbuxn9ekC8",
    "google_rating": null,
    "google_maps_url": "https://maps.google.com/?cid=3427343219320338090&g_mp=Cidnb29nbGUubWFwcy5wbGFjZXMudjEuUGxhY2VzLlNlYXJjaFRleHQQAhgEIAA"
  },
  {
    "name": "Südring",
    "street": "",
    "postcode": "22303",
    "place": "Hamburg",
    "lat": 53.5923916,
    "lng": 10.030886,
    "source_priority": "atlas",
    "source_url": "https://www.minigolfsport.de/minigolfatlas.php?plz=2",
    "google_place_id": "ChIJnTtjkCaJsUcRFPQxmVqg9BM",
    "google_rating": null,
    "google_maps_url": "https://maps.google.com/?cid=1437950492015719444&g_mp=Cidnb29nbGUubWFwcy5wbGFjZXMudjEuUGxhY2VzLlNlYXJjaFRleHQQAhgEIAA"
  },
  {
    "name": "Hamburger Schützengesellschaft von 1862 e. V.",
    "street": "",
    "postcode": "22393",
    "place": "Hamburg",
    "lat": 53.6426555,
    "lng": 10.1297905,
    "source_priority": "atlas",
    "source_url": "https://www.minigolfsport.de/minigolfatlas.php?plz=2",
    "google_place_id": "ChIJsbLUrW2KsUcRY_rOiY2aJKM",
    "google_rating": 4.8,
    "google_maps_url": "https://maps.google.com/?cid=11755690860036946531&g_mp=Cidnb29nbGUubWFwcy5wbGFjZXMudjEuUGxhY2VzLlNlYXJjaFRleHQQAhgEIAA"
  },
  {
    "name": "Niendorfer Miniaturgolf Club von 1963 e.V.",
    "street": "",
    "postcode": "22453",
    "place": "Hamburg",
    "lat": 53.6300844,
    "lng": 9.969697,
    "source_priority": "atlas",
    "source_url": "https://www.minigolfsport.de/minigolfatlas.php?plz=2",
    "google_place_id": "ChIJB9jvlQ6JsUcRYsLa1FhzPgs",
    "google_rating": 4.2,
    "google_maps_url": "https://maps.google.com/?cid=810211808338690658&g_mp=Cidnb29nbGUubWFwcy5wbGFjZXMudjEuUGxhY2VzLlNlYXJjaFRleHQQAhgEIAA"
  },
  {
    "name": "Kieler Str. 571",
    "street": "",
    "postcode": "22525",
    "place": "Hamburg",
    "lat": 53.5995667,
    "lng": 9.9161178,
    "source_priority": "atlas",
    "source_url": "https://www.minigolfsport.de/minigolfatlas.php?plz=2",
    "google_place_id": "ChIJ5fJDt2-GsUcRDlRCq0aiKDc",
    "google_rating": null,
    "google_maps_url": "https://maps.google.com/?cid=3974605095559123982&g_mp=Cidnb29nbGUubWFwcy5wbGFjZXMudjEuUGxhY2VzLlNlYXJjaFRleHQQAhgEIAA"
  },
  {
    "name": "Eckhoffplatz",
    "street": "",
    "postcode": "22547",
    "place": "Hamburg (Lurup)",
    "lat": 53.5917264,
    "lng": 9.8739224,
    "source_priority": "atlas",
    "source_url": "https://www.minigolfsport.de/minigolfatlas.php?plz=2",
    "google_place_id": "ChIJk87sxp2GsUcRTJyFdp-KpxY",
    "google_rating": null,
    "google_maps_url": "https://maps.google.com/?cid=1632425807437995084&g_mp=Cidnb29nbGUubWFwcy5wbGFjZXMudjEuUGxhY2VzLlNlYXJjaFRleHQQAhgEIAA"
  },
  {
    "name": "Freizeitzentrum Lohe",
    "street": "",
    "postcode": "22941",
    "place": "Bargteheide",
    "lat": 53.7237683,
    "lng": 10.2683109,
    "source_priority": "atlas",
    "source_url": "https://www.minigolfsport.de/minigolfatlas.php?plz=2",
    "google_place_id": "ChIJdc012U4fskcRGvd2qu_FZZw",
    "google_rating": 4.2,
    "google_maps_url": "https://maps.google.com/?cid=11269631275712313114&g_mp=Cidnb29nbGUubWFwcy5wbGFjZXMudjEuUGxhY2VzLlNlYXJjaFRleHQQAhgEIAA"
  },
  {
    "name": "Wallstraße",
    "street": "",
    "postcode": "23552",
    "place": "Lübeck",
    "lat": 53.8584292,
    "lng": 10.6853326,
    "source_priority": "atlas",
    "source_url": "https://www.minigolfsport.de/minigolfatlas.php?plz=2",
    "google_place_id": "EjZXYWxsc3RyYcOfZSwgMjM1NTIgTMO8YmVjay1Mw7xiZWNrZXIgQWx0c3RhZHQsIEdlcm1hbnkiLiosChQKEgk3IFOLWgmyRxEittL0g-U04BIUChIJLcpsu1kJskcRoM7mBmeJJBw",
    "google_rating": null,
    "google_maps_url": "https://maps.google.com/?q=Wallstra%C3%9Fe,+23552+L%C3%BCbeck-L%C3%BCbecker+Altstadt,+Deutschland&ftid=0x47b2095a8b532037:0xe034e583f4d2b622&g_mp=Cidnb29nbGUubWFwcy5wbGFjZXMudjEuUGxhY2VzLlNlYXJjaFRleHQQAhgEIAA"
  },
  {
    "name": "Minigolf Kücknitz",
    "street": "",
    "postcode": "23569",
    "place": "Lübeck",
    "lat": 53.9160362,
    "lng": 10.8134523,
    "source_priority": "atlas",
    "source_url": "https://www.minigolfsport.de/minigolfatlas.php?plz=2",
    "google_place_id": "ChIJK_w3m2L1rUcRYaELJGMlFi8",
    "google_rating": 4.2,
    "google_maps_url": "https://maps.google.com/?cid=3392940477006979425&g_mp=Cidnb29nbGUubWFwcy5wbGFjZXMudjEuUGxhY2VzLlNlYXJjaFRleHQQAhgEIAA"
  },
  {
    "name": "Dünenweg",
    "street": "",
    "postcode": "23570",
    "place": "Travemünde",
    "lat": 53.9566407,
    "lng": 10.8858732,
    "source_priority": "atlas",
    "source_url": "https://www.minigolfsport.de/minigolfatlas.php?plz=2",
    "google_place_id": "ChIJa7J2K9-KrUcRbXUJ1PYxSzU",
    "google_rating": null,
    "google_maps_url": "https://maps.google.com/?cid=3840218043452585325&g_mp=Cidnb29nbGUubWFwcy5wbGFjZXMudjEuUGxhY2VzLlNlYXJjaFRleHQQAhgEIAA"
  },
  {
    "name": "Außenallee",
    "street": "",
    "postcode": "23570",
    "place": "Travemünde",
    "lat": 53.9596847,
    "lng": 10.8752768,
    "source_priority": "atlas",
    "source_url": "https://www.minigolfsport.de/minigolfatlas.php?plz=2",
    "google_place_id": "ChIJ1SXvycKKrUcRa853D4rADx4",
    "google_rating": null,
    "google_maps_url": "https://maps.google.com/?cid=2166161644986027627&g_mp=Cidnb29nbGUubWFwcy5wbGFjZXMudjEuUGxhY2VzLlNlYXJjaFRleHQQAhgEIAA"
  },
  {
    "name": "Seestraße",
    "street": "",
    "postcode": "23578",
    "place": "Weissenhäuser Strand",
    "lat": 54.3068398,
    "lng": 10.7931087,
    "source_priority": "atlas",
    "source_url": "https://www.minigolfsport.de/minigolfatlas.php?plz=2",
    "google_place_id": "EkZTZWVzdHJhw59lLCAyMzc1OCBPbGRlbmJ1cmcgaW4gSG9sc3RlaW4tV2Vpc3NlbmjDpHVzZXIgU3RyYW5kLCBHZXJtYW55Ii4qLAoUChIJpX6vfX6HskcRivnY22YntIQSFAoSCVUfe1N6h7JHEcrZDNQtr_gI",
    "google_rating": null,
    "google_maps_url": "https://maps.google.com/?q=Seestra%C3%9Fe,+23758+Oldenburg+in+Holstein-Weissenh%C3%A4user+Strand,+Deutschland&ftid=0x47b2877e7daf7ea5:0x84b42766dbd8f98a&g_mp=Cidnb29nbGUubWFwcy5wbGFjZXMudjEuUGxhY2VzLlNlYXJjaFRleHQQAhgEIAA"
  },
  {
    "name": "Am Kurpark",
    "street": "",
    "postcode": "23611",
    "place": "Bad Schwartau",
    "lat": 53.9228247,
    "lng": 10.6987067,
    "source_priority": "atlas",
    "source_url": "https://www.minigolfsport.de/minigolfatlas.php?plz=2",
    "google_place_id": "ChIJ14_QgnsLskcRZSFsOqKbs3M",
    "google_rating": null,
    "google_maps_url": "https://maps.google.com/?cid=8337178456260092261&g_mp=Cidnb29nbGUubWFwcy5wbGFjZXMudjEuUGxhY2VzLlNlYXJjaFRleHQQAhgEIAA"
  },
  {
    "name": "Daimlerstraße 2",
    "street": "",
    "postcode": "23617",
    "place": "Stockelsdorf",
    "lat": 53.8926939,
    "lng": 10.62033,
    "source_priority": "atlas",
    "source_url": "https://www.minigolfsport.de/minigolfatlas.php?plz=2",
    "google_place_id": "ChIJ_bcrZzMMskcRbEUxPBA2jEI",
    "google_rating": null,
    "google_maps_url": "https://maps.google.com/?cid=4795267146599974252&g_mp=Cidnb29nbGUubWFwcy5wbGFjZXMudjEuUGxhY2VzLlNlYXJjaFRleHQQAhgEIAA"
  },
  {
    "name": "Blüchereiche 99",
    "street": "",
    "postcode": "23626",
    "place": "Ratekau",
    "lat": 53.9350954,
    "lng": 10.7213703,
    "source_priority": "atlas",
    "source_url": "https://www.minigolfsport.de/minigolfatlas.php?plz=2",
    "google_place_id": "ChIJYdBslEELskcR5DWngb7-nW8",
    "google_rating": null,
    "google_maps_url": "https://maps.google.com/?cid=8042864603726034404&g_mp=Cidnb29nbGUubWFwcy5wbGFjZXMudjEuUGxhY2VzLlNlYXJjaFRleHQQAhgEIAA"
  },
  {
    "name": "Strandallee",
    "street": "",
    "postcode": "23669",
    "place": "Timmendorfer Strand",
    "lat": 53.9917591,
    "lng": 10.7970504,
    "source_priority": "atlas",
    "source_url": "https://www.minigolfsport.de/minigolfatlas.php?plz=2",
    "google_place_id": "EiNTdHJhbmRhbGxlZSwgMjM2NjkgUmF0ZWthdSwgR2VybWFueSIuKiwKFAoSCXfuwJ05dLJHEaPYxp8t5p5AEhQKEgk7awjUGXWyRxFQ3ecGZ4kkHA",
    "google_rating": null,
    "google_maps_url": "https://maps.google.com/?q=Strandallee,+23669+Ratekau,+Deutschland&ftid=0x47b274399dc0ee77:0x409ee62d9fc6d8a3&g_mp=Cidnb29nbGUubWFwcy5wbGFjZXMudjEuUGxhY2VzLlNlYXJjaFRleHQQAhgEIAA"
  },
  {
    "name": "Kurparkstraße 2",
    "street": "",
    "postcode": "23669",
    "place": "Timmendorfer Strand",
    "lat": 53.9996708,
    "lng": 10.7781524,
    "source_priority": "atlas",
    "source_url": "https://www.minigolfsport.de/minigolfatlas.php?plz=2",
    "google_place_id": "ChIJE8sDC1R0skcR4zJXqeijyKI",
    "google_rating": null,
    "google_maps_url": "https://maps.google.com/?cid=11729805449155261155&g_mp=Cidnb29nbGUubWFwcy5wbGFjZXMudjEuUGxhY2VzLlNlYXJjaFRleHQQAhgEIAA"
  },
  {
    "name": "Badeweg",
    "street": "",
    "postcode": "23683",
    "place": "Scharbeutz",
    "lat": 54.0242933,
    "lng": 10.7532858,
    "source_priority": "atlas",
    "source_url": "https://www.minigolfsport.de/minigolfatlas.php?plz=2",
    "google_place_id": "ChIJtSZLTBF0skcR7ltAdc_OZSM",
    "google_rating": null,
    "google_maps_url": "https://maps.google.com/?cid=2550672154395958254&g_mp=Cidnb29nbGUubWFwcy5wbGFjZXMudjEuUGxhY2VzLlNlYXJjaFRleHQQAhgEIAA"
  },
  {
    "name": "Pönitzer Chaussee",
    "street": "",
    "postcode": "23683",
    "place": "Scharbeutz",
    "lat": 54.0340918,
    "lng": 10.7383854,
    "source_priority": "atlas",
    "source_url": "https://www.minigolfsport.de/minigolfatlas.php?plz=2",
    "google_place_id": "ChIJTyKC6AZ0skcR70mSIS8ykY4",
    "google_rating": null,
    "google_maps_url": "https://maps.google.com/?cid=10273047403016899055&g_mp=Cidnb29nbGUubWFwcy5wbGFjZXMudjEuUGxhY2VzLlNlYXJjaFRleHQQAhgEIAA"
  },
  {
    "name": "Dorfstraße",
    "street": "",
    "postcode": "23683",
    "place": "Scharbeutz",
    "lat": 54.0491519,
    "lng": 10.7423053,
    "source_priority": "atlas",
    "source_url": "https://www.minigolfsport.de/minigolfatlas.php?plz=2",
    "google_place_id": "Ei9Eb3Jmc3RyYcOfZSwgMjM2ODMgU2NoYXJiZXV0ei1IYWZma3J1ZywgR2VybWFueSIuKiwKFAoSCXHvfgutdrJHEW5CD5N0EqoSEhQKEgmJLrz9BHSyRxEg7OYGZ4kkHA",
    "google_rating": null,
    "google_maps_url": "https://maps.google.com/?q=Dorfstra%C3%9Fe,+23683+Scharbeutz-Haffkrug,+Deutschland&ftid=0x47b276ad0b7eef71:0x12aa1274930f426e&g_mp=Cidnb29nbGUubWFwcy5wbGFjZXMudjEuUGxhY2VzLlNlYXJjaFRleHQQAhgEIAA"
  },
  {
    "name": "Kleingolfplatz am Seeschaarwald",
    "street": "",
    "postcode": "23701",
    "place": "Eutin",
    "lat": 54.1445226,
    "lng": 10.6238426,
    "source_priority": "atlas",
    "source_url": "https://www.minigolfsport.de/minigolfatlas.php?plz=2",
    "google_place_id": "ChIJecXVGF5lskcRoJgRT3vKFQI",
    "google_rating": 3.4,
    "google_maps_url": "https://maps.google.com/?cid=150248793543121056&g_mp=Cidnb29nbGUubWFwcy5wbGFjZXMudjEuUGxhY2VzLlNlYXJjaFRleHQQAhgEIAA"
  },
  {
    "name": "Marktstraße",
    "street": "",
    "postcode": "23714",
    "place": "Bad Malente",
    "lat": 54.1754,
    "lng": 10.5578025,
    "source_priority": "atlas",
    "source_url": "https://www.minigolfsport.de/minigolfatlas.php?plz=2",
    "google_place_id": "ChIJk3pTRNtlskcRCSZDiNMJhYI",
    "google_rating": null,
    "google_maps_url": "https://maps.google.com/?cid=9404934200962000393&g_mp=Cidnb29nbGUubWFwcy5wbGFjZXMudjEuUGxhY2VzLlNlYXJjaFRleHQQAhgEIAA"
  },
  {
    "name": "Neversfelder Str. 4",
    "street": "",
    "postcode": "23714",
    "place": "Bad Malente-Gremsmühlen",
    "lat": 54.1763292,
    "lng": 10.557705,
    "source_priority": "atlas",
    "source_url": "https://www.minigolfsport.de/minigolfatlas.php?plz=2",
    "google_place_id": "ChIJ77c4H9tlskcRu3WPF9aXiKw",
    "google_rating": null,
    "google_maps_url": "https://maps.google.com/?cid=12432353717130327483&g_mp=Cidnb29nbGUubWFwcy5wbGFjZXMudjEuUGxhY2VzLlNlYXJjaFRleHQQAhgEIAA"
  },
  {
    "name": "Strandweg",
    "street": "",
    "postcode": "23715",
    "place": "Bosau",
    "lat": 54.1019845,
    "lng": 10.4278203,
    "source_priority": "atlas",
    "source_url": "https://www.minigolfsport.de/minigolfatlas.php?plz=2",
    "google_place_id": "ChIJW5T557lpskcR74SX8-73KbM",
    "google_rating": null,
    "google_maps_url": "https://maps.google.com/?cid=12910122412495308015&g_mp=Cidnb29nbGUubWFwcy5wbGFjZXMudjEuUGxhY2VzLlNlYXJjaFRleHQQAhgEIAA"
  },
  {
    "name": "Haffkamp",
    "street": "",
    "postcode": "23730",
    "place": "Brodau",
    "lat": 54.1125188,
    "lng": 10.9021287,
    "source_priority": "atlas",
    "source_url": "https://www.minigolfsport.de/minigolfatlas.php?plz=2",
    "google_place_id": "ChIJqzqB5hqIrUcRcnSFpRpYHsg",
    "google_rating": 4.6,
    "google_maps_url": "https://maps.google.com/?cid=14420059928356287602&g_mp=Cidnb29nbGUubWFwcy5wbGFjZXMudjEuUGxhY2VzLlNlYXJjaFRleHQQAhgEIAA"
  },